City_ID,City,Lat,Lng,Max Temp,Humidity,Cloudiness,Wind Speed,Country,Date
0,alofi,-19.0595,-169.9187,80.49,100,40,6.91,NU,1715090132
1,prince rupert,54.3161,-130.3201,44.29,88,75,23.02,CA,1715090133
2,hamilton,39.1834,-84.5333,70.93,92,75,6.91,US,1715089945
3,adamstown,-25.066,-130.1015,70.83,78,45,11.21,PN,1715090133
4,ribeira grande,38.5167,-28.7,68.4,88,40,17.0,PT,1715090133
5,bredasdorp,-34.5322,20.0403,65.37,79,93,11.59,ZA,1715090133
6,hasaki,35.7333,140.8333,68.4,90,100,22.5,JP,1715090133
7,port-aux-francais,-49.35,70.2167,40.26,77,26,32.95,TF,1715090133
8,grytviken,-54.2811,-36.5092,30.43,77,69,7.61,GS,1715090133
9,yinchuan,38.4681,106.2731,73.24,10,100,8.1,CN,1715090133
10,olonkinbyen,70.9221,-8.7187,30.67,89,13,7.47,SJ,1715090133
11,salalah,17.0151,54.0924,89.69,70,40,14.97,OM,1715090134
12,shahr-e babak,30.1165,55.1186,75.74,18,3,20.51,IR,1715090134
13,blackmans bay,-43.0167,147.3167,53.73,87,99,3.74,AU,1715090134
14,radovis,41.6383,22.4647,73.76,44,98,4.21,MK,1715090134
15,the pas,53.8251,-101.2541,48.22,61,75,11.5,CA,1715090134
16,saldanha,-33.0117,17.9442,68.05,86,45,10.56,ZA,1715090134
17,waitangi,-43.9535,-176.5597,44.82,54,24,7.43,NZ,1715090134
18,yemetsk,63.4721,41.7941,35.69,37,100,4.9,RU,1715090134
19,jamestown,42.097,-79.2353,63.01,48,0,8.05,US,1715089930
20,porbandar,21.6422,69.6093,84.36,73,0,16.55,IN,1715090134
21,iqaluit,63.7506,-68.5145,22.73,73,20,20.71,CA,1715090135
22,harstad,68.799,16.5293,42.19,61,13,18.01,NO,1715090135
23,pariaman,-0.619,100.12,78.85,85,97,1.86,ID,1715090135
24,rio de janeiro,-22.9028,-43.2075,91.35,71,0,8.05,BR,1715089899
25,tazacorte,28.629,-17.9293,74.37,60,0,9.22,ES,1715090135
26,ushuaia,-54.8,-68.3,31.66,93,20,0.0,AR,1715089934
27,barra de santo antonio,-9.4047,-35.5072,76.28,85,100,6.64,BR,1715090135
28,tucurui,-3.7661,-49.6725,85.89,59,86,6.06,BR,1715090135
29,nemuro,43.3236,145.575,38.32,96,100,15.32,JP,1715090135
30,kailua-kona,19.6406,-155.9956,73.36,96,100,4.61,US,1715090135
31,badger,64.8,-147.5333,35.08,94,75,0.0,US,1715090135
32,metlili chaamba,32.2667,3.6333,90.54,14,2,6.91,DZ,1715090136
33,laguna,38.421,-121.4238,52.32,88,0,4.61,US,1715090136
34,yellowknife,62.456,-114.3525,51.42,69,75,9.22,CA,1715090136
35,udachny,66.4167,112.4,31.44,98,87,17.22,RU,1715090136
36,stanley,54.868,-1.6985,58.78,73,75,5.75,GB,1715090136
37,constantia,44.1833,28.65,77.7,69,100,14.34,RO,1715089922
38,luderitz,-26.6481,15.1594,67.06,66,2,13.96,NA,1715090136
39,lazaro cardenas,17.9583,-102.2,75.97,69,100,2.59,MX,1715090136
40,margaret river,-33.95,115.0667,63.36,52,46,11.5,AU,1715090136
41,spring creek,40.7266,-115.5859,35.4,72,91,8.39,US,1715090136
42,wailua homesteads,22.0669,-159.378,72.39,83,100,14.97,US,1715090137
43,port mathurin,-19.6833,63.4167,78.3,68,88,26.93,MU,1715090137
44,tazovsky,67.4667,78.7,13.53,96,40,4.27,RU,1715090137
45,papatowai,-46.5619,169.4708,48.34,84,99,9.35,NZ,1715090137
46,avarua,-21.2078,-159.775,80.65,94,75,9.22,CK,1715090137
47,invercargill,-46.4,168.35,45.01,86,99,3.0,NZ,1715089843
48,ust'-uda,54.1742,103.0304,44.2,64,56,2.51,RU,1715090137
49,dryden,49.7833,-92.7503,52.09,54,0,11.5,CA,1715090137
50,mont-tremblant,46.1949,-74.6264,57.36,66,3,2.3,CA,1715090137
51,pisco,-13.7,-76.2167,66.25,94,20,3.44,PE,1715090042
52,petropavlovsk-kamchatsky,53.0452,158.6483,33.46,78,40,8.01,RU,1715090138
53,douz,33.4663,9.0203,88.47,23,0,21.54,TN,1715090138
54,yanam,16.7333,82.2167,83.95,78,11,5.99,IN,1715090138
55,whitehorse,60.7161,-135.0538,31.01,83,40,13.8,CA,1715090138
56,longyearbyen,78.2186,15.6401,31.84,80,75,3.44,SJ,1715089963
57,keflavik,64.0049,-22.5624,39.11,93,100,18.41,IS,1715090138
58,chibougamau,49.9168,-74.3659,37.02,81,100,11.5,CA,1715090138
59,chamical,-30.36,-66.314,65.26,80,90,4.76,AR,1715090138
60,sarupathar,26.1984,93.8094,77.88,55,0,2.33,IN,1715090139
61,lupane,-18.9315,27.807,91.26,20,0,4.56,ZW,1715090139
62,muisne,0.6,-80.0333,79.3,87,100,14.09,EC,1715090139
63,palma di montechiaro,37.1926,13.765,83.97,55,100,5.3,IT,1715090139
64,honnali,14.25,75.6667,84.63,58,85,17.11,IN,1715090139
65,bintulu,3.1667,113.0333,77.41,100,20,3.44,MY,1715090139
66,tiksi,71.6872,128.8694,32.41,99,100,15.99,RU,1715090139
67,vila franca do campo,37.7167,-25.4333,66.61,99,86,14.79,PT,1715090139
68,suhbaatar,50.2314,106.2078,46.89,70,100,18.99,MN,1715090140
69,lihue,21.9789,-159.3672,72.99,79,100,14.97,US,1715090140
70,sisimiut,66.9395,-53.6735,25.5,64,87,2.59,GL,1715090140
71,heunghae,36.1125,129.3522,54.18,84,100,14.79,KR,1715090140
72,new norfolk,-42.7826,147.0587,54.9,83,100,0.67,AU,1715090140
73,albany,42.6001,-73.9662,65.57,54,0,1.99,US,1715090140
74,palmas de monte alto,-14.2672,-43.1619,87.55,33,2,9.8,BR,1715090140
75,puerto natales,-51.7236,-72.4875,21.65,93,0,5.75,CL,1715090140
76,soke,13.598,-5.9386,105.03,19,13,7.27,ML,1715090140
77,sinabang,2.4803,96.3801,80.91,81,97,2.62,ID,1715090141
78,yorkton,51.2167,-102.4677,49.84,87,100,13.8,CA,1715090105
79,college,64.8569,-147.8028,35.17,92,75,0.0,US,1715090141
80,pudasjarvi,65.3833,26.9167,34.27,39,100,11.27,FI,1715090141
81,edinburgh of the seven seas,-37.0676,-12.3116,59.5,80,67,32.82,SH,1715090141
82,suksun,57.1431,57.3949,44.76,70,100,3.83,RU,1715090141
83,iskateley,67.6803,53.1512,21.02,83,74,17.0,RU,1715090141
84,talnakh,69.4865,88.3972,22.21,94,96,5.37,RU,1715090141
85,kanye,-24.9667,25.3327,80.64,16,0,7.96,BW,1715090141
86,kirensk,57.7853,108.1119,41.97,55,14,5.01,RU,1715090141
87,tvoroyri,61.5556,-6.8111,47.57,76,75,15.84,FO,1715090141
88,ulladulla,-35.35,150.4667,58.82,87,100,5.14,AU,1715090142
89,kerikeri,-35.2268,173.9474,51.91,93,41,7.0,NZ,1715090142
90,cabedelo,-6.9811,-34.8339,86.67,66,85,10.87,BR,1715089859
91,flying fish cove,-10.4217,105.6791,76.68,94,75,10.36,CX,1715090142
92,phongsali,21.6833,102.1058,63.54,99,100,1.81,LA,1715090142
93,sieradz,51.5958,18.7302,58.17,65,100,10.6,PL,1715090142
94,puerto ayora,-0.7393,-90.3518,74.55,97,54,6.46,EC,1715090142
95,santa cruz del sur,20.7147,-77.9956,81.28,76,21,6.15,CU,1715090142
96,coruripe,-10.1256,-36.1756,81.63,81,100,10.07,BR,1715090011
97,vilyuchinsk,52.9306,158.4028,34.93,88,84,2.26,RU,1715090143
98,san luis de la loma,17.2706,-100.8939,81.1,58,100,2.46,MX,1715090143
99,campos novos,-27.4017,-51.225,74.62,57,10,6.26,BR,1715090050
100,grand baie,-20.0182,57.5802,79.27,76,1,5.99,MU,1715090143
101,al kharijah,25.4514,30.5464,87.67,13,0,11.99,EG,1715090143
102,ulsteinvik,62.3432,5.8487,54.91,90,100,11.01,NO,1715090143
103,luganville,-15.5333,167.1667,74.08,80,20,5.48,VU,1715090143
104,kismayo,-0.3582,42.5454,82.85,77,71,18.48,SO,1715090143
105,rehli,23.6333,79.0833,99.68,12,7,6.6,IN,1715090143
106,san antonio de pale,-1.4014,5.6325,82.02,79,100,9.46,GQ,1715090144
107,aripuana,-9.1667,-60.6333,84.36,78,17,1.61,BR,1715090144
108,fort bragg,35.139,-79.006,76.19,79,75,10.36,US,1715090144
109,konin,52.2234,18.2512,58.77,53,92,11.21,PL,1715089864
110,saint-pierre,-21.3393,55.4781,76.68,65,0,29.93,RE,1715090144
111,hawaiian paradise park,19.5933,-154.9731,69.03,98,75,4.61,US,1715090144
112,bilibino,68.0546,166.4372,19.98,98,68,0.89,RU,1715090144
113,kodiak,57.79,-152.4072,38.71,87,100,8.05,US,1715090144
114,georgetown,5.4112,100.3354,87.75,70,40,4.61,MY,1715090096
115,mega,4.05,38.3,67.46,79,89,10.47,ET,1715090145
116,anadyr,64.75,177.4833,19.9,86,75,20.13,RU,1715090145
117,punta arenas,-53.15,-70.9167,33.91,93,100,2.3,CL,1715090145
118,hithadhoo,-0.6,73.0833,85.78,74,89,9.48,MV,1715090145
119,abanilla,38.2054,-1.0415,75.43,49,69,13.62,ES,1715090145
120,vincennes,48.85,2.4333,69.15,53,20,15.99,FR,1715090145
121,igarka,67.4667,86.5833,22.01,84,100,13.0,RU,1715090145
122,klyuchi,52.2667,79.1667,58.35,37,100,8.46,RU,1715090145
123,thompson,55.7435,-97.8558,39.36,81,40,9.22,CA,1715090145
124,dudinka,69.4058,86.1778,22.68,94,99,7.0,RU,1715090146
125,kone,-21.0595,164.8658,64.4,86,0,2.46,NC,1715090146
126,bandar-e lengeh,26.5579,54.8807,96.91,12,0,16.11,IR,1715090146
127,namdrik,5.5994,168.1028,83.05,81,94,18.57,MH,1715090146
128,kalat,29.0225,66.5916,75.54,17,0,9.4,PK,1715090146
129,port lincoln,-34.7333,135.8667,58.66,82,37,14.81,AU,1715090146
130,colonia,50.9333,6.95,66.83,70,40,10.36,DE,1715089867
131,afaahiti,-17.75,-149.2833,76.87,78,91,17.87,PF,1715090146
132,kuusamo,65.9667,29.1833,32.04,47,40,9.22,FI,1715090146
133,geraldton,-28.7667,114.6,59.41,88,0,2.3,AU,1715090146
134,port elizabeth,-33.918,25.5701,76.1,78,0,18.41,ZA,1715090132
135,acarau,-2.8856,-40.12,86.07,70,71,13.22,BR,1715089851
136,tolanaro,-25.0319,46.9987,78.87,73,40,16.11,MG,1715090147
137,faya-largeau,17.9257,19.1043,109.29,8,0,18.41,TD,1715090147
138,aasiaat,68.7098,-52.8699,20.59,72,100,3.98,GL,1715090147
139,nadi,-17.8,177.4167,77.0,83,75,0.0,FJ,1715090147
140,al ghayzah,16.2079,52.176,88.5,69,30,19.28,YE,1715090147
141,uturoa,-16.7333,-151.4333,82.02,78,27,16.87,PF,1715090147
142,san julian,21.0167,-102.1667,69.3,19,99,3.67,MX,1715090147
143,mount gambier,-37.8333,140.7667,49.21,96,11,5.03,AU,1715090147
144,broken hill,-31.95,141.4333,55.98,59,0,11.99,AU,1715090148
145,selfoss,63.9331,-20.9971,44.04,74,100,18.34,IS,1715090148
146,bhimunipatnam,17.8833,83.4333,83.71,77,2,15.64,IN,1715090148
147,namtsy,62.7161,129.6658,41.72,78,100,12.35,RU,1715090148
148,hadibu,12.65,54.0333,87.3,67,13,2.57,YE,1715090148
149,aibak,36.2647,68.0155,78.69,39,56,4.76,AF,1715090148
150,dakhla,23.6848,-15.958,73.42,64,36,20.71,EH,1715090037
151,newman,37.3138,-121.0208,51.26,90,34,4.07,US,1715090148
152,san felipe jalapa de diaz,18.0667,-96.5333,92.46,42,44,2.46,MX,1715090148
153,kenai,60.5544,-151.2583,35.15,100,0,6.91,US,1715090149
154,lakhdenpokh'ya,61.5198,30.1992,36.75,52,100,12.01,RU,1715090149
155,port shepstone,-30.7414,30.455,77.94,67,0,10.56,ZA,1715090149
156,trondheim,63.4305,10.3951,48.99,92,100,1.07,NO,1715089899
157,turpan,42.9333,89.1667,89.49,18,100,8.63,CN,1715090149
158,estreito,-5.7833,-43.25,84.61,58,99,8.61,BR,1715090149
159,victoria,22.2855,114.1577,80.65,85,99,11.99,HK,1715089959
160,lorengau,-2.0226,147.2712,80.4,86,100,5.95,PG,1715090149
161,fortuna,40.5982,-124.1573,43.72,97,75,4.61,US,1715090149
162,mohr,54.3528,9.7167,61.02,69,75,11.5,DE,1715090150
163,qaqortoq,60.7167,-46.0333,34.61,47,39,3.62,GL,1715090150
164,santa cruz,-17.8,-63.1667,81.86,83,40,19.57,BO,1715090025
165,alice springs,-23.7,133.8833,56.75,67,100,0.0,AU,1715090150
166,west island,-12.1568,96.8225,82.38,74,40,10.36,CC,1715090150
167,malango,-2.9627,119.9001,68.13,99,100,1.79,ID,1715090150
168,vengerovo,55.6848,76.7471,49.42,80,100,8.32,RU,1715090150
169,al burayqah,30.4062,19.5739,75.94,42,100,11.12,LY,1715090150
170,n'zeto,-7.2312,12.8666,82.89,75,96,12.75,AO,1715090150
171,codrington,-38.2667,141.9667,48.29,91,0,7.54,AU,1715090150
172,roswell,34.0232,-84.3616,76.98,86,0,6.91,US,1715089914
173,clearwater,27.9659,-82.8001,82.94,76,0,8.05,US,1715090100
174,chernyshevskiy,63.0128,112.4714,29.98,83,100,12.06,RU,1715090151
175,carnarvon,-24.8667,113.6333,72.03,62,4,19.08,AU,1715090151
176,neustadt in holstein,54.1071,10.8145,61.43,75,79,14.7,DE,1715090151
177,priargunsk,50.3691,119.1012,62.17,22,44,8.01,RU,1715090151
178,ingeniero guillermo n. juarez,-23.9,-61.85,87.57,51,8,18.37,AR,1715090151
179,moyynkum,44.2914,72.9469,77.13,31,100,5.75,KZ,1715090151
180,bethel,41.3712,-73.414,71.6,51,0,1.99,US,1715090151
181,howrah,22.5892,88.3103,86.0,74,40,4.61,IN,1715090151
182,acapulco de juarez,16.8634,-99.8901,77.25,67,69,4.68,MX,1715089938
183,nema,57.5067,50.5011,39.67,87,100,10.38,RU,1715090152
184,filadelfia,39.9523,-75.1638,74.21,53,40,8.05,US,1715089916
185,susuman,62.7833,148.1667,32.99,75,100,5.01,RU,1715090152
186,moses lake,47.1301,-119.2781,47.08,65,0,9.22,US,1715090118
187,negara,-8.3151,114.6025,77.16,91,11,7.78,ID,1715090152
188,nikolo-berezovka,56.1242,54.1557,45.75,65,100,10.76,RU,1715090152
189,taltal,-25.4,-70.4833,61.54,66,98,2.75,CL,1715090153
190,nicoya,10.1483,-85.452,86.52,65,34,3.71,CR,1715090153
191,goulburn,-34.75,149.7167,50.79,99,100,1.01,AU,1715090153
192,vadso,70.0744,29.7487,34.68,80,75,10.36,NO,1715090153
193,gamba,-2.65,10.0,85.24,72,100,10.6,GA,1715090154
194,kourou,5.1552,-52.6478,80.65,87,96,9.84,GF,1715090154
195,sandnessjoen,66.0217,12.6316,55.92,54,20,4.61,NO,1715090154
196,tan an,10.5333,106.4167,82.42,68,76,11.25,VN,1715090154
197,arraial do cabo,-22.9661,-42.0278,82.36,57,0,17.27,BR,1715090154
198,ilulissat,69.2167,-51.1,21.22,58,75,13.8,GL,1715090154
199,pago pago,-14.2781,-170.7025,83.39,84,40,4.61,AS,1715090154
200,tura,25.5198,90.2201,75.76,65,9,3.94,IN,1715090154
201,hermanus,-34.4187,19.2345,64.8,91,92,13.6,ZA,1715090155
202,misratah,32.3754,15.0925,76.86,44,100,14.63,LY,1715090155
203,isafjordur,66.0755,-23.124,42.84,61,75,5.75,IS,1715090155
204,iquique,-20.2208,-70.1431,66.24,78,67,4.36,CL,1715090060
205,puerto armuelles,8.2833,-82.8667,81.09,72,45,1.01,PA,1715090155
206,yuzhno-kurilsk,44.0306,145.8556,42.37,99,100,5.99,RU,1715090155
207,dokshytsy,54.8924,27.7689,48.15,41,42,15.9,BY,1715090155
208,praia da vitoria,38.7333,-27.0667,68.76,83,40,18.84,PT,1715090155
209,nouadhibou,20.931,-17.0347,76.98,57,0,14.97,MR,1715090155
210,iranshahr,27.2025,60.6848,104.34,11,0,6.91,IR,1715090155
211,ostrow wielkopolski,51.655,17.8069,52.68,74,100,10.45,PL,1715090156
212,moldova noua,44.7375,21.6669,78.03,50,100,8.23,RO,1715090156
213,sabzevar,36.2126,57.6819,85.28,25,40,16.11,IR,1715090156
214,ghazni,33.5536,68.4269,69.37,30,11,1.14,AF,1715090156
215,sarh,9.1429,18.3923,107.51,24,20,4.61,TD,1715090156
216,thunder bay,48.4001,-89.3168,49.98,57,75,18.41,CA,1715090119
217,kili,5.6439,169.1211,82.81,83,98,20.92,MH,1715090156
218,namibe,-15.1961,12.1522,78.51,62,29,16.08,AO,1715090156
219,vorgashor,67.5833,63.95,20.8,80,70,7.23,RU,1715090156
220,vernon,50.2581,-119.2691,48.43,63,100,5.99,CA,1715089964
221,bamboo flat,11.7,92.7167,82.49,78,40,2.3,IN,1715090157
222,arkhangel'sk,64.5401,40.5433,35.71,51,40,8.95,RU,1715089999
223,srandakan,-7.9386,110.2506,78.01,90,5,5.86,ID,1715090157
224,karratha,-20.7377,116.8463,79.21,67,0,5.5,AU,1715090157
225,nasir,15.5894,32.5634,102.56,7,0,15.03,SD,1715090157
226,paradip garh,20.3167,86.6167,79.63,78,100,14.29,IN,1715090157
227,cuyo,10.8525,121.0086,86.38,72,100,14.94,PH,1715090157
228,bodo,67.28,14.405,50.04,45,0,19.57,NO,1715090157
229,dipayal,29.2608,80.94,70.7,91,100,5.35,NP,1715090158
230,ribeira brava,32.65,-17.0667,78.71,66,65,12.46,PT,1715090158
231,pauini,-7.7136,-66.9764,86.43,65,100,2.8,BR,1715090158
232,east london,-33.0153,27.9116,97.74,17,0,9.22,ZA,1715090158
233,mugia,43.1041,-9.2179,59.92,72,100,18.99,ES,1715090158
234,belyy yar,53.6039,91.3903,58.89,31,0,6.71,RU,1715090158
235,okhotsk,59.3833,143.3,33.37,90,100,4.74,RU,1715090158
236,kedougou,12.5579,-12.1743,107.49,16,10,5.03,SN,1715090158
237,montepuez,-13.1256,38.9997,76.35,67,100,8.03,MZ,1715090158
238,yung shue wan,22.2333,114.1167,80.02,83,100,1.01,HK,1715090158
239,touros,-5.1989,-35.4608,87.17,57,62,12.55,BR,1715090158
240,paros,37.0833,25.15,77.72,49,0,5.75,GR,1715090159
241,ulanhot,46.0833,122.0833,59.9,26,5,7.23,CN,1715090159
242,sechura,-5.5569,-80.8222,71.82,71,100,14.67,PE,1715090159
243,zhezqazghan,47.7833,67.7667,72.18,37,40,13.42,KZ,1715090159
244,nieuw amsterdam,5.8833,-55.0833,86.02,79,75,9.22,SR,1715090159
245,dzerzhinskoye,56.8344,95.2283,47.75,51,7,1.28,RU,1715090159
246,dossor,47.5272,52.9811,71.06,22,100,17.63,KZ,1715090159
247,bagan,54.1001,77.6646,58.35,47,100,12.28,RU,1715090159
248,luena,-11.7833,19.9167,84.31,33,23,4.68,AO,1715090159
249,saipan,15.1355,145.701,83.1,74,20,8.05,MP,1715090160
250,bonthe,7.5264,-12.505,86.36,71,99,8.68,SL,1715090160
251,fale old settlement,-9.3852,-171.2468,84.79,77,100,8.72,TK,1715090160
252,pont-sainte-marie,48.3185,4.0945,64.45,63,75,10.36,FR,1715090160
253,qulsary,46.9531,54.0198,57.81,58,100,17.72,KZ,1715090160
254,cabo san lucas,22.8909,-109.9124,72.52,58,75,5.75,MX,1715089967
255,ketchikan,55.3422,-131.6461,43.27,87,75,6.91,US,1715090160
256,jeddah,21.5169,39.2192,94.86,18,0,16.11,SA,1715090160
257,la sarre,48.8002,-79.1996,50.45,62,30,4.79,CA,1715090160
258,puerto carreno,6.189,-67.4859,82.38,89,20,2.3,CO,1715090160
259,arteche,12.2645,125.4048,79.81,83,100,4.21,PH,1715090160
260,talara,-4.5772,-81.2719,72.36,73,75,20.71,PE,1715090161
261,lompoc,34.6391,-120.4579,55.92,87,0,11.5,US,1715090161
262,nar'yan-mar,67.6713,53.087,21.11,83,75,17.0,RU,1715090161
263,bardai,11.65,7.2333,99.3,24,54,6.2,NG,1715090161
264,moultrie,31.1799,-83.7891,77.83,100,100,4.61,US,1715090161
265,kavaratti,10.5669,72.642,86.7,68,7,10.22,IN,1715090161
266,muravlenko,63.7898,74.523,33.51,100,100,5.26,RU,1715090161
267,kyzyl,51.7,94.45,57.69,27,0,3.42,RU,1715090161
268,regina,50.4501,-104.6178,51.78,86,100,21.85,CA,1715089993
269,chonchi,-42.6128,-73.8092,42.12,94,100,2.19,CL,1715090162
270,megion,61.0296,76.1136,44.62,93,100,9.75,RU,1715090044
271,nizhnyaya poyma,56.1622,97.1933,43.79,54,0,2.93,RU,1715090162
272,el granada,37.5027,-122.4694,52.32,88,0,17.27,US,1715090162
273,homer,59.6425,-151.5483,40.8,83,75,5.01,US,1715090162
274,remire-montjoly,4.9167,-52.2667,80.64,94,75,3.44,GF,1715090162
275,juli,-16.2167,-69.45,53.19,51,86,3.38,PE,1715090162
276,nagqu,31.5,92.0,36.97,63,100,3.2,CN,1715090162
277,phetchabun,16.25,101.0833,80.33,76,100,4.12,TH,1715090162
278,brisas de zicatela,15.8369,-97.0419,77.52,78,0,4.61,MX,1715090162
279,shipunovo,52.1582,82.2173,56.68,58,100,3.36,RU,1715090163
280,deniliquin,-35.5333,144.9667,53.44,57,0,6.06,AU,1715090163
281,bayganin,48.6947,55.8742,67.17,31,100,9.66,KZ,1715090163
282,kapa'a,22.0752,-159.319,73.72,80,100,14.97,US,1715090163
283,tual,-5.6667,132.75,79.88,83,100,5.95,ID,1715090163
284,langtang,9.1333,9.7833,104.14,23,87,7.25,NG,1715090163
285,haiku-pauwela,20.9219,-156.3051,72.05,82,40,4.0,US,1715090163
286,antsiranana,-12.2787,49.2917,84.96,54,20,20.71,MG,1715090163
287,rosemeadow,-34.1067,150.7928,59.14,87,92,1.99,AU,1715090163
288,veraval,20.9,70.3667,83.53,80,0,17.02,IN,1715090164
289,emerald,-23.5333,148.1667,68.99,69,0,9.84,AU,1715090164
290,ust-nera,64.5667,143.2,30.24,89,48,5.32,RU,1715090164
291,atafu village,-8.5421,-172.5159,85.24,77,46,11.59,TK,1715090164
292,catriel,-37.8791,-67.7956,59.5,56,2,6.91,AR,1715090164
293,kimbe,-5.5502,150.1429,77.65,94,100,4.23,PG,1715090164
294,skelleftea,64.7507,20.9528,39.56,45,0,11.5,SE,1715090164
295,cannonvale,-20.2833,148.7,69.58,86,24,15.64,AU,1715090164
296,khovd,48.0056,91.6419,60.49,41,99,6.73,MN,1715090164
297,mount isa,-20.7333,139.5,71.37,46,65,8.05,AU,1715090165
298,samana,19.2056,-69.3369,77.22,88,75,4.61,DO,1715090165
299,port victoria,0.0939,33.9756,75.65,72,90,7.54,KE,1715090165
300,prado,-17.3411,-39.2208,83.5,67,8,8.48,BR,1715090165
301,kingsford,-33.924,151.2275,60.15,90,67,9.66,AU,1715090165
302,queenstown,-31.8976,26.8753,79.84,19,0,13.51,ZA,1715090165
303,yoloten,37.2989,62.3597,95.49,15,100,6.51,TM,1715090165
304,kinablangan,7.6947,126.5503,77.36,80,100,2.21,PH,1715090165
305,coahuayana de hidalgo,18.7,-103.6583,75.52,38,100,0.87,MX,1715090165
306,tromso,69.6496,18.957,41.02,42,0,16.11,NO,1715090166
307,bushehr,28.9684,50.8385,93.29,27,0,6.91,IR,1715090166
308,al bayda',32.7627,21.7551,70.18,35,16,10.4,LY,1715090166
309,san jose del guaviare,2.5729,-72.6459,82.33,81,91,0.45,CO,1715090166
310,umm kaddadah,13.6017,26.6876,103.62,7,5,14.58,SD,1715090166
311,san bernardo del viento,9.3533,-75.9524,84.99,78,100,3.98,CO,1715090166
312,hammerfest,70.6634,23.6821,34.25,60,20,8.05,NO,1715090166
313,mao,39.8885,4.2658,64.96,59,20,13.8,ES,1715090167
314,quellon,-43.1167,-73.6167,42.62,87,100,9.24,CL,1715090167
315,coronel suarez,-37.4547,-61.9334,56.3,93,100,9.55,AR,1715090167
316,port blair,11.6667,92.75,82.44,78,40,2.3,IN,1715090167
317,katabu,-4.9333,122.5167,75.38,96,88,3.91,ID,1715090167
318,lincoln city,44.9582,-124.0179,48.79,93,12,5.01,US,1715089966
319,arendal,58.4615,8.7725,55.2,46,20,9.86,NO,1715089967
320,obala,4.1667,11.5333,93.07,48,61,4.5,CM,1715090167
321,angaur state,6.906,134.13,83.19,71,100,7.2,PW,1715090168
322,fort st. john,56.2499,-120.8529,40.89,48,75,10.36,CA,1715090077
323,ugoofaaru,5.6667,73.0,84.88,77,100,9.78,MV,1715090168
324,robore,-18.3333,-59.75,86.09,70,16,17.27,BO,1715090168
325,tete,-16.1564,33.5867,95.14,36,20,5.99,MZ,1715090168
326,mammoth lakes,37.6485,-118.9721,41.72,17,0,11.5,US,1715090168
327,papao,-17.75,-149.55,78.48,79,36,20.74,PF,1715090168
328,itarare,-24.1125,-49.3317,79.11,47,48,6.08,BR,1715090098
329,sitka,57.0531,-135.33,44.49,76,100,10.36,US,1715090168
330,magadan,59.5667,150.8,31.53,99,99,3.98,RU,1715089993
331,puerto real,36.5282,-6.1901,86.13,44,0,11.5,ES,1715089939
332,pangody,65.85,74.4859,26.62,95,97,14.79,RU,1715090169
333,carbonear,47.7332,-53.2148,48.74,90,100,5.23,CA,1715090169
334,goundam,16.4145,-3.6708,107.82,3,5,10.96,ML,1715090169
335,nabire,-3.3667,135.4833,77.16,93,100,4.94,ID,1715090169
336,malakal,9.5334,31.6605,105.44,16,10,6.62,SS,1715090169
337,vila velha,-20.3297,-40.2925,85.96,99,75,2.3,BR,1715090169
338,puerto deseado,-47.7503,-65.8938,37.69,85,100,9.37,AR,1715090169
339,kirakira,-10.4544,161.9205,80.11,88,100,6.42,SB,1715090170
340,coihueco,-36.6167,-71.8333,41.74,87,100,13.8,CL,1715090170
341,rio grande,-32.035,-52.0986,71.71,90,100,11.52,BR,1715090170
342,puerto lempira,15.2667,-83.7667,82.54,74,40,6.91,HN,1715090170
343,nayoro,44.3506,142.4578,33.55,97,100,6.15,JP,1715090170
344,gadzhiyevo,69.2551,33.3362,31.19,70,97,14.74,RU,1715090170
345,cockburn town,21.4612,-71.1419,77.29,84,76,18.39,TC,1715090170
346,derzhavinsk,51.1,66.3167,59.72,37,3,10.02,KZ,1715090170
347,sao vicente,-23.9631,-46.3919,91.27,61,0,3.44,BR,1715090170
348,nova sintra,14.8667,-24.7167,76.33,69,2,11.79,CV,1715090171
349,garoowe,8.4054,48.4845,91.85,42,97,4.05,SO,1715090171
350,tsiombe,-25.3,45.4833,76.91,68,0,12.75,MG,1715090171
351,martapura,-3.4167,114.85,82.49,83,20,2.3,ID,1715090171
352,weno,7.4515,151.8468,78.75,94,100,3.44,FM,1715090171
353,mejit,10.2753,170.8646,82.6,72,100,18.77,MH,1715090171
354,defuniak springs,30.721,-86.1152,80.82,61,11,8.55,US,1715090077
355,pagar alam,-4.0167,103.2667,70.56,99,95,2.95,ID,1715090171
356,lodja,-3.4833,23.4333,97.72,28,42,4.09,CD,1715090171
357,egilsstadir,65.2653,-14.3948,53.51,43,20,17.27,IS,1715090171
358,basoko,1.2391,23.616,94.24,44,96,3.15,CD,1715090172
359,ginir,7.1333,40.7,72.1,63,53,7.31,ET,1715090172
360,mukalla,14.5425,49.1242,86.47,67,48,5.44,YE,1715090172
361,cidreira,-30.1811,-50.2056,78.94,63,9,3.04,BR,1715090172
362,port alfred,-33.5906,26.891,74.17,71,0,7.83,ZA,1715090172
363,bengkulu,-3.8004,102.2655,78.57,91,95,5.53,ID,1715090172
364,watford city,47.8022,-103.2832,51.15,100,100,5.75,US,1715090172
365,sturgis,41.7992,-85.4192,61.95,59,100,13.8,US,1715089954
366,isangel,-19.55,169.2667,73.18,81,31,11.5,VU,1715089968
367,nantucket,41.2835,-70.0995,66.34,92,40,16.11,US,1715089890
368,puerto gaitan,4.3133,-72.0816,82.17,78,90,3.13,CO,1715089905
369,tralee,52.2704,-9.7026,59.25,67,75,2.3,IE,1715090004
370,tadine,-21.55,167.8833,68.92,74,3,9.1,NC,1715090173
371,bondoukou,8.0333,-2.8,93.38,43,100,4.21,CI,1715090173
372,escarcega,18.6089,-90.7454,84.83,59,5,8.5,MX,1715090173
373,portland,45.5234,-122.6762,46.38,91,20,5.01,US,1715090118
374,laojunmiao,39.8333,97.7333,64.78,13,0,8.1,CN,1715090173
375,utrik,11.2278,169.8474,82.29,75,99,17.56,MH,1715090173
376,mili,6.0815,171.735,82.22,84,92,20.8,MH,1715090173
377,ofunato,39.0717,141.7167,58.59,93,98,6.29,JP,1715090173
378,pilar,-9.5972,-35.9567,75.13,91,100,3.33,BR,1715090173
379,tezu,27.9167,96.1667,73.47,61,89,4.29,IN,1715090174
380,st. john's,47.5649,-52.7093,48.27,88,100,6.91,CA,1715090078
381,senanga,-16.1167,23.2667,88.72,30,100,4.92,ZM,1715090174
382,sarmiento,-45.5882,-69.07,32.13,96,100,11.99,AR,1715090174
383,aioun,16.6614,-9.6149,110.3,4,0,16.58,MR,1715090174
384,matoury,4.8483,-52.3317,80.56,94,75,3.44,GF,1715090174
385,upata,8.0086,-62.3989,87.93,51,77,8.16,VE,1715089943
386,siwa oasis,29.2041,25.5195,84.33,16,0,6.51,EG,1715090174
387,susanville,40.4163,-120.653,37.9,83,47,1.99,US,1715090174
388,altai,46.3722,96.2583,55.71,40,100,7.11,MN,1715090175
389,horta,38.5333,-28.6333,67.64,92,40,17.0,PT,1715090175
390,kovdor,67.5662,30.4758,29.44,77,90,11.97,RU,1715090175
391,tongchuanshi,35.0806,109.0897,66.27,45,100,4.47,CN,1715090175
392,oppdal,62.5943,9.6912,48.18,90,100,3.24,NO,1715090175
393,huron,41.1501,-82.5499,69.67,52,13,7.38,US,1715090083
394,saint croix,17.7397,-64.7388,79.95,87,36,5.01,VI,1715090175
395,daru,-9.0763,143.2092,79.79,87,100,17.31,PG,1715090175
396,williams lake,52.1415,-122.1445,37.06,88,75,5.75,CA,1715090175
397,kingston,17.997,-76.7936,85.15,79,20,6.91,JM,1715090129
398,funafuti,-8.5243,179.1942,86.0,79,40,2.3,TV,1715090176
399,vrangel',42.7297,133.0839,40.48,83,97,7.18,RU,1715090176
400,choibalsan,48.0667,114.5,67.19,21,3,12.95,MN,1715090176
401,palmer,42.1584,-72.3287,71.83,48,0,9.22,US,1715090176
402,chaupimarca,-10.4333,-76.5333,45.7,65,100,6.38,PE,1715090176
403,kuressaare,58.2481,22.5039,51.75,35,0,10.36,EE,1715090176
404,vorkuta,67.5,64.0,21.11,80,67,8.99,RU,1715090176
405,mwinilunga,-11.7358,24.4293,74.25,62,99,7.36,ZM,1715090176
406,maintirano,-18.0667,44.0167,82.08,61,0,6.73,MG,1715090176
407,carutapera,-1.195,-46.02,83.1,81,81,6.4,BR,1715090176
408,afif,23.9065,42.9172,86.16,8,0,12.77,SA,1715090177
409,pont rouge,48.8833,-72.0825,46.69,61,100,13.04,CA,1715090177
410,angostura,25.3667,-108.1833,73.51,37,100,4.47,MX,1715090177
411,klaksvik,62.2266,-6.589,50.92,75,81,18.77,FO,1715090177
412,itaituba,-4.2761,-55.9836,78.96,100,75,0.0,BR,1715090177
413,arti,56.4234,58.5328,46.92,58,99,6.8,RU,1715090177
414,kendari,-3.945,122.4989,76.44,97,100,2.48,ID,1715090177
415,yeppoon,-23.1333,150.7333,67.24,80,0,14.34,AU,1715090177
416,socorro,31.6546,-106.3033,67.19,17,20,10.36,US,1715090177
417,salym,60.0625,71.4789,44.64,75,57,10.22,RU,1715090177
418,mossel bay,-34.1831,22.146,71.53,62,14,9.6,ZA,1715090178
419,'ali al gharbi,32.4633,46.6864,88.27,20,85,10.87,IQ,1715090178
420,fisterra,42.9049,-9.2629,71.31,73,100,21.77,ES,1715090178
421,kaka,37.3482,59.6143,92.59,20,0,6.93,TM,1715090178
422,labytnangi,66.6572,66.4183,21.38,86,36,14.52,RU,1715090178
423,forster,-32.1667,152.5167,63.43,71,98,5.99,AU,1715090178
424,noshiro,40.2039,140.0242,46.36,89,100,15.37,JP,1715090178
425,as sulayyil,20.4607,45.5779,102.45,13,0,1.99,SA,1715090178
426,shingu,33.7333,135.9833,61.99,79,100,5.28,JP,1715090178
427,baoqing,46.3317,132.2111,43.97,40,0,3.18,CN,1715090179
428,pau brasil,-15.4642,-39.6511,85.98,48,27,6.91,BR,1715090179
429,cadale,2.7603,46.3222,84.85,76,100,15.68,SO,1715090179
430,sanibel,26.449,-82.0223,82.06,79,0,8.01,US,1715089919
431,gulariya,28.2333,81.3333,85.19,42,74,6.76,NP,1715090179
432,la passe,45.5549,-0.8967,64.63,81,29,15.19,FR,1715090179
433,nogliki,51.8333,143.1667,28.35,95,91,5.99,RU,1715090179
434,lebu,-37.6167,-73.65,49.87,69,75,3.87,CL,1715090179
435,betio village,1.358,172.9211,82.44,81,65,8.66,KI,1715090180
436,znamenskoye,57.1281,73.8282,50.65,76,67,8.14,RU,1715090180
437,kamiiso,41.8167,140.65,48.58,87,100,4.61,JP,1715090180
438,cascais,38.6979,-9.4215,80.51,58,0,9.22,PT,1715090180
439,greymouth,-42.4667,171.2,40.53,78,0,6.26,NZ,1715090180
440,puerto san jose,13.9256,-90.8244,80.65,70,40,0.0,GT,1715090180
441,midyat,37.4247,41.3393,60.64,51,64,16.6,TR,1715090180
442,la foa,-21.7108,165.8276,68.54,83,8,4.23,NC,1715090180
443,amarante,-6.2411,-42.8547,88.5,53,100,9.62,BR,1715090180
444,dhidhdhoo,6.8833,73.1,85.69,71,99,10.42,MV,1715090180
445,eydhafushi,5.1033,73.0708,84.99,78,85,11.45,MV,1715090180
446,hami,42.8,93.45,83.68,11,98,4.97,CN,1715090181
447,san miguel de salcedo,-1.0333,-78.5667,55.96,93,75,2.3,EC,1715090181
448,katsuura,35.1333,140.3,68.02,91,100,23.76,JP,1715090181
449,kalevala,65.2,31.1667,29.08,68,100,11.01,RU,1715090181
450,smithers,54.7804,-127.1743,30.52,86,75,3.44,CA,1715090181
451,labrador city,52.9463,-66.9114,41.18,64,75,10.0,CA,1715090181
452,pullman,46.7313,-117.1796,42.22,85,0,15.99,US,1715090181
453,mancio lima,-7.6142,-72.8958,78.87,94,75,3.44,BR,1715090181
454,santa isabel,-23.3156,-46.2214,81.7,50,1,2.55,BR,1715090181
455,albertina,-22.2008,-46.6158,80.71,47,0,4.25,BR,1715090181
456,callao,-12.0667,-77.15,70.72,88,100,6.91,PE,1715090102
457,tara,56.8944,74.371,50.77,75,88,8.5,RU,1715090182
458,mount pearl,47.5166,-52.7813,47.44,90,100,6.91,CA,1715089925
459,at taj,24.2049,23.2857,91.45,9,0,5.75,LY,1715090182
460,mullovka,54.2,49.4,53.42,95,100,5.73,RU,1715090182
461,slaton,33.4373,-101.6435,64.76,15,0,10.71,US,1715090182
462,port augusta,-32.5,137.7667,58.19,64,1,5.44,AU,1715090182
463,bandar lampung,-5.4254,105.258,75.78,96,31,1.36,ID,1715090044
464,wynyard,-41.0,145.7167,51.75,89,100,5.91,AU,1715090182
465,stephenville,32.2207,-98.2023,77.16,83,0,5.75,US,1715089884
466,island harbour,50.724,-1.2758,70.16,64,74,4.65,GB,1715090183
467,bharwari,25.55,81.5,96.49,23,48,7.63,IN,1715090183
468,bel ombre,-4.6167,55.4167,84.04,79,20,8.05,SC,1715090183
469,autazes,-3.5797,-59.1306,80.82,86,100,3.33,BR,1715090183
470,kushiro,42.975,144.3747,41.95,100,100,11.5,JP,1715090183
471,tortoli,39.9256,9.6572,73.15,73,75,6.91,IT,1715090183
472,lotoshino,56.2267,35.6414,40.98,54,100,9.98,RU,1715090183
473,adrar,20.5022,-10.0711,104.02,5,49,3.47,MR,1715090183
474,luanda,-8.8368,13.2343,89.6,71,20,17.27,AO,1715089987
475,saiha,22.4833,92.9667,74.12,80,100,0.94,IN,1715090184
476,gotsucho,35.0,132.2167,55.8,91,100,10.25,JP,1715090184
477,namie,37.4833,141.0,61.56,94,100,3.67,JP,1715090184
478,turkestan,43.3333,68.25,80.17,31,100,11.01,KZ,1715090184
479,champerico,14.3,-91.9167,79.34,74,18,6.02,GT,1715090184
480,boa vista,2.8197,-60.6733,76.98,94,75,3.44,BR,1715089914
481,minas de marcona,-15.2119,-75.1103,62.83,70,79,14.09,PE,1715090184
482,marco,25.9726,-81.729,82.06,80,0,6.91,US,1715090184
483,nuku'alofa,-21.1333,-175.2,75.54,94,20,3.44,TO,1715090184
484,alaminos,14.0639,121.2465,83.34,86,56,3.8,PH,1715090185
485,kristiansund,63.1115,7.732,50.05,93,75,11.5,NO,1715090185
486,inari,68.906,27.0288,34.0,60,88,7.45,FI,1715090185
487,ghat,24.9647,10.1728,104.05,9,76,22.95,LY,1715090185
488,gaspe,48.8334,-64.4819,51.71,57,75,16.11,CA,1715090185
489,sao jose da coroa grande,-8.8978,-35.1478,83.1,73,100,5.14,BR,1715090185
490,kalaleh,37.3807,55.4916,62.96,100,75,0.0,IR,1715090185
491,sarankhola,22.3082,89.7897,80.35,82,100,4.83,BD,1715090185
492,lerwick,60.1545,-1.1494,51.8,67,70,9.15,GB,1715090185
493,mendoza,-32.8908,-68.8272,45.93,93,75,2.3,AR,1715090035
494,miyazaki,31.9111,131.4239,66.15,59,100,17.27,JP,1715090186
495,sanctuary point,-35.1114,150.629,58.32,84,100,3.15,AU,1715090186
496,bathsheba,13.2167,-59.5167,86.61,70,20,17.27,BB,1715090186
497,punta del este,-34.9667,-54.95,66.31,100,100,10.36,UY,1715089985
498,suva,-18.1416,178.4415,76.48,94,75,2.3,FJ,1715090186
499,bikenibeu village,1.3673,173.1241,82.36,89,75,10.36,KI,1715090186
500,khilok,51.3674,110.4676,46.4,80,100,13.49,RU,1715090186
501,saint-philippe,-21.3585,55.7679,76.59,69,72,13.89,RE,1715090186
502,tabas,33.5959,56.9244,93.42,18,47,2.3,IR,1715090186
503,bowen,-20.0167,148.2333,71.91,87,8,13.29,AU,1715090186
504,mandera,3.9366,41.867,89.44,52,96,13.62,KE,1715090187
505,kununurra,-15.7667,128.7333,73.38,68,97,0.0,AU,1715090187
506,mitsamiouli,-11.3847,43.2844,82.35,73,100,4.56,KM,1715090187
507,lagos,6.5833,3.75,89.92,79,100,6.42,NG,1715090041
508,policoro,40.2115,16.6726,69.42,72,100,4.0,IT,1715090187
509,coronel dorrego,-38.7187,-61.2873,56.37,84,100,10.6,AR,1715090187
510,bytow,54.1706,17.4919,59.22,36,0,9.22,PL,1715090187
511,saint-francois,46.4154,3.9054,62.42,62,75,8.05,FR,1715090187
512,bhamo,24.2667,97.2333,77.76,56,100,0.31,MM,1715090187
513,kargasok,59.0556,80.8572,52.97,37,100,15.99,RU,1715090187
514,la ceiba,15.7597,-86.7822,84.02,74,61,0.0,HN,1715090188
515,karakocan,38.9558,40.0386,56.66,65,100,7.49,TR,1715090188
516,princeville,45.7668,-61.2985,57.65,76,40,11.5,CA,1715090188
517,ikalamavony,-21.15,46.5833,69.94,68,13,10.89,MG,1715090188
518,halifax,44.6453,-63.5724,61.48,68,20,10.36,CA,1715089961
519,luau,-10.7073,22.2247,78.96,53,73,5.55,AO,1715090188
520,manggar,-2.8833,108.2667,82.54,80,12,6.62,ID,1715090188
521,revda,56.801,59.9303,43.43,79,100,4.54,RU,1715090188
522,northam,51.0333,-4.2167,58.66,89,94,6.64,GB,1715090188
523,kupang,-10.1667,123.5833,82.98,89,6,6.91,ID,1715090188
524,khandyga,62.6667,135.6,45.97,68,100,14.56,RU,1715090189
525,pakokku,21.3333,95.1,94.12,31,27,7.87,MM,1715090189
526,faaa,-17.55,-149.6,78.76,78,40,3.44,PF,1715090189
527,port douglas,-16.4833,145.4667,76.33,83,90,13.31,AU,1715090189
528,el calafate,-50.3408,-72.2768,26.08,73,99,2.91,AR,1715090189
529,merizo village,13.2658,144.6691,82.13,90,100,12.68,GU,1715090189
530,pampa,35.5362,-100.9599,64.83,27,0,11.5,US,1715090189
531,cochin,9.9399,76.2602,87.78,72,86,8.08,IN,1715090189
532,pyhajarvi,67.0701,27.2176,30.9,80,53,9.44,FI,1715090189
533,verdal,63.7933,11.4817,46.44,89,100,2.24,NO,1715090016
534,matamata,-37.8106,175.7624,48.29,89,2,6.02,NZ,1715090190
535,columbia falls,48.3725,-114.1815,44.55,68,100,3.44,US,1715090190
536,mareeba,-17.0,145.4333,72.32,87,56,2.64,AU,1715090190
537,tateyama,34.9833,139.8667,69.1,94,75,11.5,JP,1715090190
538,maneromango,-7.1988,38.7848,73.69,94,99,5.06,TZ,1715090190
539,anna regina,7.2644,-58.5077,85.19,68,100,7.05,GY,1715090190
540,hobyo,5.3505,48.5268,86.56,68,100,10.45,SO,1715090190
541,toliara,-23.35,43.6667,78.37,59,0,9.19,MG,1715090190
542,koupela,12.1794,-0.3517,100.04,26,97,6.69,BF,1715090190
543,winnemucca,40.973,-117.7357,37.9,54,10,8.52,US,1715090191
544,pundong,-7.9522,110.3486,77.16,92,14,4.38,ID,1715090191
545,kargopol',61.5071,38.9456,39.78,31,100,3.53,RU,1715090191
546,port erin,54.0849,-4.751,57.07,82,20,5.75,IM,1715090191
547,gotha,50.9482,10.7019,57.69,89,40,6.91,DE,1715090191
548,praia,14.9215,-23.5087,86.54,51,0,8.05,CV,1715089916
549,puri,19.8,85.85,84.72,74,100,17.52,IN,1715090191
550,bobo-dioulasso,11.1771,-4.2979,86.45,58,20,2.3,BF,1715090191
551,enewetak,11.3474,162.3373,82.44,78,95,17.85,MH,1715090191
552,ubari,26.5921,12.7805,101.84,11,5,18.99,LY,1715090191
553,coyuca de catalan,18.3333,-100.65,85.19,23,100,1.97,MX,1715090192
554,piat,17.7905,121.478,79.9,81,7,4.68,PH,1715090192
555,heves,47.6,20.2833,74.05,76,98,9.62,HU,1715090192
556,baruun-urt,46.6806,113.2792,64.92,22,6,9.33,MN,1715090192
557,broome,42.2506,-75.833,65.21,56,0,5.75,US,1715090192
558,sao pedro,-22.5486,-47.9139,83.37,45,0,6.22,BR,1715090192
559,boende,-0.2167,20.8667,99.19,30,89,3.69,CD,1715090192
560,la grande,45.3246,-118.0877,40.01,71,94,7.47,US,1715090144
561,santa luzia,-19.7697,-43.8514,78.78,55,0,11.5,BR,1715090193
562,la'ie,21.6477,-157.9253,73.45,83,38,8.01,US,1715090193
563,polyarnyy,69.1989,33.4478,31.01,69,93,14.52,RU,1715090193
564,moorhead,46.8739,-96.7676,57.16,90,100,13.8,US,1715089972
565,vila do maio,15.1333,-23.2167,86.79,74,1,12.08,CV,1715090193
566,balqash,46.8481,74.995,73.99,25,0,4.47,KZ,1715090193
567,spokoynaya,44.2468,41.4015,54.63,72,100,3.62,RU,1715090193
568,christchurch,-43.5333,172.6333,35.42,100,0,2.3,NZ,1715090036
569,golere,16.2557,-14.1017,110.95,5,0,13.51,SN,1715090193
570,nova vicosa,-17.8919,-39.3719,83.55,68,40,6.98,BR,1715090193
571,galle,6.0367,80.217,83.48,75,100,8.68,LK,1715090193
572,ancud,-41.8697,-73.8203,43.93,83,99,3.51,CL,1715090194
573,jinchang,38.4953,102.1739,71.29,21,68,7.67,CN,1715090194
574,nova xavantina,-14.6667,-52.35,83.97,57,3,4.32,BR,1715090194
575,sao joao da barra,-21.6403,-41.0511,86.09,76,0,10.22,BR,1715090194
