City_ID,City,Lat,Lng,Max Temp,Humidity,Cloudiness,Wind Speed,Country,Date
0,palasa,18.7667,84.4167,30.44,68,15,5.98,IN,1715170142
1,yellowknife,62.456,-114.3525,5.79,100,100,0.89,CA,1715170142
2,xilin hot,43.9667,116.0333,16.31,26,100,7.64,CN,1715170142
3,hami,42.8,93.45,29.38,15,100,3.57,CN,1715170142
4,puerto ayora,-0.7393,-90.3518,23.08,100,100,2.68,EC,1715170143
5,hobyo,5.3505,48.5268,30.66,69,50,5.65,SO,1715169980
6,puerto natales,-51.7236,-72.4875,-0.56,88,100,1.57,CL,1715170143
7,arica,-18.475,-70.3042,18.75,77,100,5.66,CL,1715169849
8,longyearbyen,78.2186,15.6401,2.91,65,75,7.72,SJ,1715170143
9,saint-francois,46.4154,3.9054,19.26,56,20,6.17,FR,1715170143
10,port-aux-francais,-49.35,70.2167,4.68,78,67,11.95,TF,1715170143
11,colonia,50.9333,6.95,16.64,77,75,6.17,DE,1715169916
12,isafjordur,66.0755,-23.124,5.02,60,75,7.72,IS,1715170143
13,pisco,-13.7,-76.2167,19.03,88,40,1.03,PE,1715169851
14,hasaki,35.7333,140.8333,15.22,79,100,12.73,JP,1715170144
15,tiksi,71.6872,128.8694,-2.14,95,84,5.25,RU,1715170144
16,port elizabeth,-33.918,25.5701,20.05,79,95,1.79,ZA,1715170144
17,selfoss,63.9331,-20.9971,6.69,53,41,4.85,IS,1715170144
18,floresville,29.1336,-98.1561,26.01,92,100,2.67,US,1715170144
19,talnakh,69.4865,88.3972,-7.11,85,35,1.05,RU,1715170144
20,ushuaia,-54.8,-68.3,-0.19,80,0,2.06,AR,1715169970
21,wailua homesteads,22.0669,-159.378,22.44,85,75,5.66,US,1715170145
22,east london,-33.0153,27.9116,22.1,74,78,3.29,ZA,1715170145
23,sainte-marie,-20.8968,55.5496,27.09,75,20,10.8,RE,1715170145
24,pangai,-19.8,-174.35,25.22,86,99,5.41,TO,1715170145
25,loango,-4.6719,11.8312,29.81,74,75,6.17,CG,1715170145
26,greymouth,-42.4667,171.2,5.79,83,23,4.44,NZ,1715170145
27,whitehorse,60.7161,-135.0538,3.34,61,100,5.36,CA,1715170145
28,mulanje,-16.0316,35.5,26.05,57,66,1.93,MW,1715170145
29,mundri,-6.9558,111.71,26.44,81,92,1.94,ID,1715170145
30,kavaratti,10.5669,72.642,30.61,66,87,5.53,IN,1715170145
31,la passe,45.5549,-0.8967,20.57,66,3,4.4,FR,1715170145
32,sitka,57.0531,-135.33,7.94,76,100,4.63,US,1715170146
33,merowe,18.4833,31.8167,36.93,5,0,4.85,SD,1715169920
34,ancud,-41.8697,-73.8203,8.8,83,100,5.82,CL,1715170146
35,port sudan,19.6175,37.2164,30.08,45,0,7.37,SD,1715170146
36,taro,-8.3862,115.28,24.0,100,89,0.6,ID,1715170146
37,haraiya,26.8,82.4667,35.52,28,4,4.48,IN,1715170146
38,bethel,41.3712,-73.414,16.94,87,100,3.04,US,1715169962
39,aasiaat,68.7098,-52.8699,-3.98,76,78,5.14,GL,1715170146
40,port lincoln,-34.7333,135.8667,15.81,75,28,5.63,AU,1715170147
41,heroica ciudad de tlaxiaco,17.2667,-97.6833,17.2,57,79,1.37,MX,1715170147
42,albany,42.6001,-73.9662,14.34,93,100,0.89,US,1715169909
43,margaret river,-33.95,115.0667,17.89,48,100,4.15,AU,1715170147
44,adamstown,-25.066,-130.1015,21.89,77,97,2.66,PN,1715170147
45,flying fish cove,-10.4217,105.6791,25.82,88,75,3.09,CX,1715170147
46,grytviken,-54.2811,-36.5092,-1.94,78,31,3.87,GS,1715170147
47,arraial do cabo,-22.9661,-42.0278,27.92,69,0,6.69,BR,1715170125
48,waingapu,-9.6567,120.2641,25.64,81,4,4.86,ID,1715170147
49,waitangi,-43.9535,-176.5597,9.34,87,99,3.13,NZ,1715170147
50,santaella,37.5629,-4.8436,25.91,33,99,1.95,ES,1715170134
51,iqaluit,63.7506,-68.5145,-5.15,92,75,7.2,CA,1715170148
52,fisterra,42.9049,-9.2629,22.95,69,100,4.13,ES,1715170148
53,calasparra,38.23,-1.6999,21.63,28,100,2.53,ES,1715170148
54,korsakov,46.6328,142.7813,-0.09,85,36,1.7,RU,1715170003
55,san patricio,28.017,-97.5169,27.13,98,76,5.11,US,1715170148
56,stanley,54.868,-1.6985,18.43,68,40,4.63,GB,1715169859
57,kodiak,57.79,-152.4072,2.73,87,100,5.66,US,1715170148
58,klyuchi,52.2667,79.1667,20.61,32,20,3.75,RU,1715170148
59,fortaleza,-3.7227,-38.5247,29.56,83,40,4.63,BR,1715170142
60,zapolyarnyy,69.4154,30.8136,0.6,80,93,3.22,RU,1715170148
61,akureyri,65.6835,-18.0878,6.52,52,50,2.88,IS,1715170056
62,iraquara,-12.2486,-41.6194,23.85,65,84,5.79,BR,1715170149
63,boajibu,8.1833,-11.3333,33.47,54,85,0.66,SL,1715170149
64,pitimbu,-7.4706,-34.8086,28.33,78,82,7.22,BR,1715169927
65,guerrero negro,27.9769,-114.0611,14.24,88,5,5.41,MX,1715170149
66,west island,-12.1568,96.8225,27.99,83,40,5.14,CC,1715170149
67,saldanha,-33.0117,17.9442,16.62,73,0,5.75,ZA,1715170149
68,port alfred,-33.5906,26.891,18.99,86,87,1.79,ZA,1715170149
69,lebu,-37.6167,-73.65,7.39,82,59,3.35,CL,1715170149
70,dunda,-8.1167,34.25,25.14,54,84,3.04,TZ,1715170149
71,edinburgh of the seven seas,-37.0676,-12.3116,14.23,69,100,7.83,SH,1715170150
72,oum hadjer,13.2954,19.6966,42.82,7,91,6.01,TD,1715170150
73,badger,64.8,-147.5333,5.04,85,100,2.06,US,1715170150
74,avarua,-21.2078,-159.775,27.03,94,75,4.63,CK,1715170150
75,vallenar,-28.5708,-70.7581,13.33,33,0,1.76,CL,1715170150
76,usinsk,65.9939,57.5281,-0.52,89,99,2.68,RU,1715170096
77,hawaiian paradise park,19.5933,-154.9731,20.57,95,100,2.06,US,1715170150
78,udachny,66.4167,112.4,-0.31,98,100,5.67,RU,1715169961
79,chegdomyn,51.1167,133.0167,18.29,27,94,5.61,RU,1715170150
80,ellsworth,44.5434,-68.4195,12.16,65,0,3.13,US,1715170150
81,blackmans bay,-43.0167,147.3167,11.07,95,100,2.07,AU,1715170150
82,amungan,15.3652,119.9582,29.26,77,100,2.85,PH,1715170151
83,vyazemskiy,47.5378,134.7525,12.17,44,20,3.18,RU,1715169851
84,port augusta,-32.5,137.7667,15.52,50,11,2.85,AU,1715170151
85,gorokhovets,56.1947,42.7003,4.79,68,79,6.56,RU,1715170151
86,aral,40.5156,81.2636,32.41,9,3,5.64,CN,1715170151
87,claveria,18.6074,121.0832,26.45,88,88,4.55,PH,1715170151
88,tevriz,57.509,72.4042,13.1,43,94,2.7,RU,1715170151
89,puerto armuelles,8.2833,-82.8667,27.27,90,98,3.58,PA,1715170151
90,luderitz,-26.6481,15.1594,20.87,64,0,11.84,NA,1715170151
91,thompson,55.7435,-97.8558,1.6,89,40,3.51,CA,1715170151
92,cockburn town,21.4612,-71.1419,25.06,78,99,6.85,TC,1715170151
93,menongue,-14.6585,17.691,28.99,40,83,4.03,AO,1715170151
94,keflavik,64.0049,-22.5624,6.24,65,40,6.17,IS,1715170152
95,olonkinbyen,70.9221,-8.7187,-0.97,99,100,5.4,SJ,1715170152
96,haiku-pauwela,20.9219,-156.3051,22.25,84,0,3.09,US,1715170152
97,papatowai,-46.5619,169.4708,5.33,76,88,1.68,NZ,1715170152
98,nuuk,64.1835,-51.7216,2.34,55,20,5.66,GL,1715169922
99,nepanagar,21.4667,76.4,36.15,25,17,11.84,IN,1715170152
100,okha,53.5739,142.9478,-0.42,81,75,6.26,RU,1715170152
101,gao,16.6362,1.637,42.72,7,15,5.31,ML,1715169937
102,split,43.5089,16.4392,23.54,68,20,5.66,HR,1715170152
103,vilyuchinsk,52.9306,158.4028,1.81,89,100,2.05,RU,1715170152
104,invercargill,-46.4,168.35,3.34,91,57,1.34,NZ,1715170152
105,jayapura,-2.5333,140.7,24.66,93,100,1.55,ID,1715170153
106,qaqortoq,60.7167,-46.0333,2.11,52,83,2.17,GL,1715170153
107,vilhena,-12.7406,-60.1458,24.73,76,23,1.94,BR,1715170153
108,talanga,14.4,-87.0833,23.3,77,93,0.65,HN,1715170153
109,gobabis,-22.45,18.9667,29.89,23,31,6.88,NA,1715170153
110,saint-die-des-vosges,48.2833,6.95,16.99,50,73,3.35,FR,1715170153
111,labrador city,52.9463,-66.9114,-0.46,64,97,1.79,CA,1715170153
112,sao geraldo do araguaia,-6.4006,-48.555,24.58,83,99,0.72,BR,1715170153
113,noumea,-22.2763,166.4572,17.99,72,20,4.8,NC,1715170153
114,bagasra,21.4833,70.95,39.0,19,0,3.13,IN,1715170153
115,punta arenas,-53.15,-70.9167,1.06,93,100,1.54,CL,1715170153
116,opuwo,-18.0607,13.84,32.35,22,3,6.25,NA,1715170154
117,eraan,9.0629,117.7016,28.4,79,88,0.87,PH,1715170154
118,ghanzi,-21.5667,21.7833,31.42,22,3,6.3,BW,1715170154
119,kourou,5.1552,-52.6478,27.03,83,87,3.44,GF,1715170154
120,atafu village,-8.5421,-172.5159,29.55,74,100,4.94,TK,1715170154
121,porto velho,-8.7619,-63.9039,27.03,89,0,2.06,BR,1715169998
122,minas de marcona,-15.2119,-75.1103,13.96,90,84,4.69,PE,1715170154
123,palikir - national government center,6.9248,158.1611,27.98,79,54,7.92,FM,1715170154
124,maumere,-8.6199,122.2111,26.41,80,37,3.5,ID,1715170154
125,noshiro,40.2039,140.0242,7.5,74,89,4.01,JP,1715170155
126,quellon,-43.1167,-73.6167,7.03,92,100,5.72,CL,1715170072
127,undurkhaan,47.3194,110.6556,14.33,18,100,3.32,MN,1715170155
128,cormontreuil,49.2167,4.05,15.14,77,100,4.12,FR,1715170155
129,fort bragg,35.139,-79.006,24.08,85,40,3.09,US,1715170155
130,weno,7.4515,151.8468,27.97,83,100,3.09,FM,1715170155
131,kostomuksha,64.571,30.5767,-1.65,71,100,5.36,RU,1715170155
132,reguiba,33.5639,6.7033,27.93,19,37,5.77,DZ,1715170155
133,mariestad,58.7097,13.8237,15.28,72,83,3.6,SE,1715170155
134,faya-largeau,17.9257,19.1043,43.37,8,4,4.54,TD,1715170155
135,enewetak,11.3474,162.3373,27.57,82,93,9.27,MH,1715170155
136,cabo san lucas,22.8909,-109.9124,23.62,50,100,2.68,MX,1715170155
137,sacaba,20.5833,-89.9833,25.63,83,38,3.5,MX,1715170156
138,bredasdorp,-34.5322,20.0403,20.23,52,11,2.27,ZA,1715169877
139,zayed city,24.3768,54.589,37.08,26,0,9.26,AE,1715170156
140,assomada,15.1,-23.6833,31.75,50,1,4.21,CV,1715170156
141,sandnessjoen,66.0217,12.6316,6.06,87,75,5.14,NO,1715170156
142,douvrin,50.5092,2.8305,14.96,69,100,3.09,FR,1715170156
143,queenstown,-31.8976,26.8753,24.09,32,4,1.42,ZA,1715169883
144,cascais,38.6979,-9.4215,28.06,43,0,4.63,PT,1715170156
145,kruisfontein,-34.0033,24.7314,18.82,52,98,3.86,ZA,1715170156
146,kingston,17.997,-76.7936,27.31,84,9,0.86,JM,1715170156
147,taoudenni,22.6783,-3.9836,39.72,3,100,0.49,ML,1715170157
148,omdurman,15.6445,32.4777,37.41,5,47,6.28,SD,1715170157
149,murun-kuren,49.6342,100.1625,14.58,50,99,3.22,MN,1715170157
150,kovylkino,54.0388,43.9139,7.29,52,93,8.73,RU,1715170157
151,santa cruz,-17.8,-63.1667,26.03,94,75,9.26,BO,1715169904
152,general acha,-37.377,-64.6043,7.79,46,62,11.0,AR,1715170157
153,varzea da palma,-17.5981,-44.7308,25.94,50,0,2.64,BR,1715170157
154,kayangel,8.0823,134.7173,28.97,71,99,5.17,PW,1715170157
155,nema,57.5067,50.5011,4.92,76,96,6.78,RU,1715170157
156,sitangkai,4.6628,119.3928,29.25,74,93,4.82,PH,1715170158
157,ingolstadt,48.7667,11.4333,11.42,82,100,3.09,DE,1715169867
158,bel ombre,-4.6167,55.4167,29.47,72,50,2.23,SC,1715170158
159,crane,31.3974,-102.3501,20.83,21,0,4.82,US,1715170158
160,nemuro,43.3236,145.575,3.26,84,94,5.08,JP,1715170158
161,fada,9.5667,8.3,36.32,28,78,2.37,NG,1715170158
162,san antonio de pale,-1.4014,5.6325,27.57,85,100,4.22,GQ,1715170158
163,coquimbo,-29.9533,-71.3436,11.85,87,0,3.6,CL,1715169978
164,itoman,26.1247,127.6694,23.21,60,75,8.75,JP,1715170158
165,lata,40.1629,-8.3327,24.16,43,22,2.74,PT,1715170158
166,bilibino,68.0546,166.4372,-7.12,95,96,2.19,RU,1715170158
167,la ronge,55.1001,-105.2842,2.73,88,100,2.16,CA,1715170159
168,ratnagiri,16.9833,73.3,29.65,68,0,5.34,IN,1715170159
169,novo milosevo,45.7217,20.3031,21.65,57,93,3.18,RS,1715170159
170,mpanda,-6.3655,31.0409,26.88,59,98,2.82,TZ,1715170159
171,kerikeri,-35.2268,173.9474,9.39,85,9,1.34,NZ,1715170114
172,malabar,-33.9667,151.25,16.74,91,54,6.75,AU,1715170159
173,sao jose da coroa grande,-8.8978,-35.1478,28.24,80,61,5.83,BR,1715170159
174,takaungu,-3.6837,39.8566,27.27,73,93,9.2,KE,1715170160
175,hobbs,32.7026,-103.136,19.81,14,0,5.14,US,1715169977
176,mount isa,-20.7333,139.5,20.87,73,96,0.51,AU,1715170160
177,sannicandro garganico,41.8384,15.5654,19.7,69,78,5.02,IT,1715170160
178,arno,60.1167,18.6333,2.66,92,100,3.74,SE,1715170160
179,tamale,9.4008,-0.8393,35.67,42,51,1.49,GH,1715170160
180,giddings,30.1827,-96.9364,24.73,86,100,3.98,US,1715170160
181,reggane,26.7158,0.1714,39.16,3,100,1.49,DZ,1715170160
182,siguiri,11.6667,-9.5,39.08,25,23,2.98,GN,1715170160
183,kirensk,57.7853,108.1119,9.98,50,98,1.79,RU,1715169870
184,puerto penasco,31.3167,-113.5333,21.62,76,0,4.47,MX,1715170161
185,filadelfia,39.9523,-75.1638,20.28,95,100,3.09,US,1715169941
186,gandorhun,7.5,-11.8333,33.92,53,77,1.69,SL,1715170161
187,new norfolk,-42.7826,147.0587,11.72,99,100,0.4,AU,1715170161
188,vadso,70.0744,29.7487,1.49,55,20,2.57,NO,1715170161
189,dubbo,-32.25,148.6167,12.07,82,93,4.12,AU,1715170161
190,dzhalagash,45.0833,64.6667,28.23,28,93,2.45,KZ,1715170161
191,new plymouth,-39.0667,174.0833,10.45,69,5,2.56,NZ,1715170161
192,gaalkacyo,6.7697,47.4308,35.16,36,37,1.53,SO,1715169980
193,san julian,21.0167,-102.1667,18.62,17,91,1.46,MX,1715170161
194,bardejov,49.2918,21.2727,16.82,40,87,5.39,SK,1715170162
195,nampula,-15.1165,39.2666,28.51,45,15,4.16,MZ,1715170162
196,gorom-gorom,14.4439,-0.2361,39.33,21,94,1.97,BF,1715170162
197,saipan,15.1355,145.701,28.39,83,100,6.17,MP,1715170162
198,riosucio,5.4216,-75.7032,16.96,98,100,0.07,CO,1715170162
199,el salto,20.3333,-104.5,19.77,21,100,0.69,MX,1715170162
200,chernyshevskiy,63.0128,112.4714,-0.46,87,100,3.36,RU,1715170162
201,blenheim,-41.516,173.9528,7.14,85,10,9.69,NZ,1715170162
202,mahajanga,-15.7167,46.3167,31.8,45,7,7.29,MG,1715170162
203,lobujya,27.95,86.8167,-4.44,99,99,3.71,NP,1715170162
204,chibougamau,49.9168,-74.3659,4.13,75,87,3.19,CA,1715170162
205,yuzhno-kurilsk,44.0306,145.8556,2.99,95,100,8.56,RU,1715170163
206,volda,62.1476,6.0741,13.37,67,40,1.03,NO,1715170163
207,malango,-2.9627,119.9001,20.71,100,92,1.02,ID,1715170163
208,antofagasta,-23.65,-70.4,18.21,64,12,3.27,CL,1715170071
209,pangody,65.85,74.4859,-3.72,90,54,5.12,RU,1715170163
210,belmonte,-15.8631,-38.8828,28.51,60,19,3.79,BR,1715170163
211,ta`u,-14.2336,-169.5144,28.71,78,61,3.64,AS,1715170163
212,ola,59.5833,151.2833,0.08,95,96,3.13,RU,1715170163
213,poronaysk,49.2167,143.1167,1.2,85,9,5.94,RU,1715170163
214,itacare,-14.2775,-38.9967,26.26,86,50,4.13,BR,1715170163
215,nuku'alofa,-21.1333,-175.2,25.31,69,99,6.71,TO,1715170163
216,bafq,31.6128,55.4107,34.05,7,39,10.55,IR,1715170163
217,cantonment,31.5239,74.3764,41.06,16,20,5.14,PK,1715170164
218,port mathurin,-19.6833,63.4167,25.28,74,93,13.24,MU,1715170164
219,lashio,22.9333,97.75,26.91,41,100,0.75,MM,1715170164
220,vila franca do campo,37.7167,-25.4333,19.23,99,68,3.71,PT,1715170164
221,yarmouth,41.7057,-70.2286,15.54,89,20,3.6,US,1715170164
222,sanchursk,56.9413,47.2499,1.21,86,100,6.63,RU,1715170164
223,vernon,50.2581,-119.2691,4.13,67,99,1.03,CA,1715169971
224,templeton,35.5497,-120.706,12.65,88,0,1.54,US,1715170164
225,sharlyk,52.9167,54.75,10.27,90,100,4.83,RU,1715170164
226,auki,-8.7676,160.7034,25.87,90,100,2.69,SB,1715170164
227,turpan,42.9333,89.1667,35.15,13,78,4.49,CN,1715170165
228,bunyan,38.8463,35.8603,19.12,29,0,4.61,TR,1715170165
229,american canyon,38.1749,-122.2608,17.14,48,0,0.0,US,1715170165
230,wynyard,-41.0,145.7167,11.26,83,82,3.2,AU,1715170165
231,la oliva,28.6105,-13.9291,20.66,78,0,4.12,ES,1715170165
232,dzilam gonzalez,21.2833,-88.9333,25.56,89,58,3.39,MX,1715170165
233,necochea,-38.5473,-58.7368,14.06,81,74,11.24,AR,1715170063
234,ambodifotatra,-16.9833,49.85,26.5,73,2,8.64,MG,1715169885
235,tura,25.5198,90.2201,24.86,62,89,1.24,IN,1715169866
236,tazovsky,67.4667,78.7,-5.37,92,46,5.05,RU,1715170165
237,port douglas,-16.4833,145.4667,24.32,83,95,8.38,AU,1715170165
238,chauk,20.8833,94.8167,32.59,41,100,2.37,MM,1715170165
239,jamestown,42.097,-79.2353,17.8,82,0,5.14,US,1715170166
240,st. john's,47.5649,-52.7093,6.27,96,100,6.17,CA,1715170166
241,georgetown,5.4112,100.3354,30.96,70,20,1.03,MY,1715170021
242,aripuana,-9.1667,-60.6333,25.21,92,80,0.69,BR,1715170166
243,mili,6.0815,171.735,27.63,85,96,7.36,MH,1715170166
244,tsiombe,-25.3,45.4833,29.84,41,0,3.2,MG,1715169887
245,meulaboh,4.1363,96.1285,27.36,84,100,1.53,ID,1715170166
246,vila velha,-20.3297,-40.2925,26.97,83,40,2.06,BR,1715170102
247,college,64.8569,-147.8028,5.09,86,100,2.06,US,1715169973
248,saudarkrokur,65.7461,-19.6394,5.56,56,84,7.14,IS,1715169923
249,mumford,5.2618,-0.759,30.17,72,98,3.87,GH,1715170167
250,ngereklmadel,7.4883,134.4856,27.69,81,99,3.65,PW,1715170167
251,nadym,65.5333,72.5167,-1.69,84,34,5.99,RU,1715170167
252,lichinga,-13.3128,35.2406,22.24,56,34,4.1,MZ,1715170167
253,galliano,29.4422,-90.2992,27.0,83,100,4.12,US,1715170167
254,gracias,14.5833,-88.5833,22.05,89,54,1.63,HN,1715170167
255,masterton,-40.9597,175.6575,9.5,95,2,2.16,NZ,1715170167
256,ilulissat,69.2167,-51.1,-3.99,86,100,8.23,GL,1715170167
257,sanctuary point,-35.1114,150.629,15.18,86,83,1.16,AU,1715170167
258,ust-nera,64.5667,143.2,1.07,97,90,2.42,RU,1715170167
259,lucapa,-8.4192,20.7447,33.88,27,70,2.96,AO,1715170168
260,bandarbeyla,9.4942,50.8122,31.02,69,1,6.38,SO,1715170168
261,surgut,61.25,73.4167,6.1,56,0,4.0,RU,1715169901
262,machali,-34.1833,-70.6667,3.18,68,6,1.68,CL,1715169886
263,suva,-18.1416,178.4415,20.71,88,20,1.03,FJ,1715170168
264,sydney mines,46.2367,-60.2177,9.74,75,23,2.68,CA,1715170168
265,cidreira,-30.1811,-50.2056,24.44,71,25,3.9,BR,1715170168
266,gazli,40.1333,63.45,33.3,22,38,5.96,UZ,1715170168
267,nar'yan-mar,67.6713,53.087,-4.94,88,100,7.15,RU,1715170168
268,mount gambier,-37.8333,140.7667,9.82,96,10,1.81,AU,1715170168
269,parbhani,19.2667,76.7833,40.22,15,28,3.35,IN,1715170169
270,trat,12.5,102.5,27.43,83,71,1.08,TH,1715170169
271,fernie,49.5,-115.0687,4.67,98,100,1.51,CA,1715170169
272,vorkuta,67.5,64.0,-3.83,78,8,2.24,RU,1715170169
273,sydney,-33.8679,151.2073,15.94,92,52,3.15,AU,1715170036
274,venado,22.9333,-101.0833,20.59,19,78,2.5,MX,1715170169
275,ketchikan,55.3422,-131.6461,8.26,93,100,7.2,US,1715170169
276,hermanus,-34.4187,19.2345,19.89,68,2,2.62,ZA,1715169880
277,barra,-11.0894,-43.1417,27.92,54,17,3.79,BR,1715170169
278,antsiranana,-12.2787,49.2917,30.42,58,40,11.32,MG,1715169968
279,punta del este,-34.9667,-54.95,19.06,98,75,5.14,UY,1715169999
280,rio grande,-32.035,-52.0986,24.06,84,100,7.01,BR,1715169957
281,jiaojiang,28.6803,121.4428,15.36,86,19,3.27,CN,1715170170
282,rudnichnyy,59.617,52.4703,3.68,85,100,6.24,RU,1715170170
283,tikhvin,59.6451,33.5294,0.68,50,100,6.5,RU,1715169904
284,rongelap,11.1635,166.8941,27.07,78,79,9.34,MH,1715170170
285,gorontalo,0.5412,123.0595,24.82,97,95,1.55,ID,1715170170
286,ribeira grande,38.5167,-28.7,19.32,72,40,6.69,PT,1715170170
287,zhezqazghan,47.7833,67.7667,26.32,27,0,8.0,KZ,1715170170
288,gizo,-8.103,156.8419,28.0,81,100,3.75,SB,1715170170
289,chonchi,-42.6128,-73.8092,6.73,97,100,2.08,CL,1715170171
290,vorgashor,67.5833,63.95,-4.0,78,7,3.19,RU,1715169911
291,sisimiut,66.9395,-53.6735,-2.33,81,97,1.14,GL,1715170171
292,uturoa,-16.7333,-151.4333,27.66,74,100,7.62,PF,1715170171
293,isiro,2.7739,27.616,36.8,26,72,1.97,CD,1715170171
294,san luis de la loma,17.2706,-100.8939,23.89,69,76,1.42,MX,1715170171
295,tenenkou,14.4572,-4.9169,40.83,20,6,4.05,ML,1715170171
296,castelli,-25.9468,-60.6195,26.99,70,77,2.69,AR,1715170171
297,lawas,13.764,121.0566,28.88,68,83,3.47,PH,1715170171
298,mumbwa,-14.9783,27.0619,30.46,17,36,4.03,ZM,1715170171
299,kingaroy,-26.5333,151.8333,12.82,82,13,2.97,AU,1715170171
300,snowflake,34.5134,-110.0785,9.62,30,1,4.52,US,1715170172
301,metlili chaamba,32.2667,3.6333,26.39,13,0,7.48,DZ,1715170172
302,hamilton,39.1834,-84.5333,18.05,97,100,2.06,US,1715170172
303,la'ie,21.6477,-157.9253,24.98,84,30,0.89,US,1715170172
304,esmeraldas,-19.7625,-44.3139,24.3,71,0,3.35,BR,1715170172
305,gabu,12.2833,-14.2167,38.57,20,6,2.65,GW,1715169927
306,chingirlau,51.095,54.0814,10.63,96,100,3.02,KZ,1715170172
307,yaren,-0.5472,166.916,29.05,71,66,3.44,NR,1715170172
308,sirajganj,24.45,89.7167,28.01,57,88,1.95,BD,1715170172
309,qufu,35.5967,116.9911,21.18,22,19,3.68,CN,1715170172
310,barabai,-2.5833,115.3833,25.04,94,82,0.98,ID,1715170172
311,utrik,11.2278,169.8474,27.11,80,100,9.7,MH,1715170172
312,el-tor,28.2364,33.6254,26.25,38,2,4.56,EG,1715170173
313,al jawf,29.5,38.75,26.13,14,0,1.73,SA,1715170173
314,dakhla,23.6848,-15.958,19.44,79,83,6.98,EH,1715170173
315,carnarvon,-24.8667,113.6333,22.93,53,5,3.64,AU,1715170173
316,bodaybo,57.8506,114.1933,3.39,85,92,1.18,RU,1715170173
317,guymon,36.6828,-101.4816,7.0,53,0,5.14,US,1715169896
318,chhor,25.5167,69.7667,44.55,9,2,3.11,PK,1715170173
319,carlow,52.8408,-6.9261,16.9,77,100,3.54,IE,1715170173
320,benguela,-12.5763,13.4055,31.12,53,47,3.86,AO,1715170010
321,maceio,-9.6658,-35.7353,27.69,94,75,6.17,BR,1715169925
322,mahanoro,-19.9,48.8,25.19,79,21,3.7,MG,1715170174
323,hotan,37.0997,79.9269,30.24,9,0,4.26,CN,1715170174
324,hadibu,12.65,54.0333,30.85,66,5,1.21,YE,1715170174
325,tofol,5.3248,163.0078,28.09,84,61,8.86,FM,1715170174
326,ivdel',60.6911,60.4206,1.68,65,100,2.24,RU,1715170174
327,anadyr,64.75,177.4833,-10.72,79,0,3.0,RU,1715170174
328,yamada,39.4667,141.95,7.06,88,97,1.41,JP,1715170174
329,callao,-12.0667,-77.15,19.84,88,100,2.06,PE,1715169982
330,bikenibeu village,1.3673,173.1241,28.98,79,20,4.12,KI,1715170174
331,san juan de uraba,8.7592,-76.5297,25.42,95,58,3.37,CO,1715170174
332,adrar,20.5022,-10.0711,40.08,4,0,1.7,MR,1715170175
333,yeniseysk,58.4497,92.1703,8.86,85,100,2.68,RU,1715169970
334,dalandzadgad,43.5708,104.425,21.63,25,77,0.87,MN,1715170175
335,kudahuvadhoo,2.6708,72.8944,29.17,75,100,5.7,MV,1715170175
336,novoagansk,61.9449,76.6625,1.24,98,100,5.76,RU,1715170175
337,baishan,41.9431,126.4286,10.3,56,22,0.94,CN,1715170175
338,fort mcmurray,56.7268,-111.381,8.77,93,100,2.06,CA,1715169959
339,ghat,24.9647,10.1728,36.16,12,0,3.57,LY,1715169880
340,luanda,-8.8368,13.2343,31.0,72,20,5.14,AO,1715169892
341,benghazi,32.1167,20.0667,23.01,42,98,6.7,LY,1715170175
342,santo antonio do ica,-3.1022,-67.9397,25.7,85,97,1.66,BR,1715170175
343,salanso,12.1833,-4.0833,39.29,25,32,4.84,BF,1715170175
344,atar,20.5169,-13.0499,40.82,7,1,2.31,MR,1715170090
345,luena,-11.7833,19.9167,28.77,40,99,2.82,AO,1715170176
346,burumburum,11.3911,8.7234,40.79,13,56,3.75,NG,1715170176
347,badiyah,22.45,58.8,40.45,19,0,4.39,OM,1715170176
348,ban nam yuen,9.8769,98.8659,26.93,80,100,1.15,TH,1715170176
349,dar chioukh,34.8964,3.4854,18.22,29,0,10.15,DZ,1715170176
350,batang,-6.4846,110.7083,27.47,76,86,2.63,ID,1715170096
351,kibondo,-3.5864,30.7203,22.23,72,98,2.43,TZ,1715170176
352,alpine,32.835,-116.7664,12.59,83,100,3.6,US,1715170176
353,santa marta de ortigueira,43.6833,-7.85,17.84,67,99,8.62,ES,1715170176
354,egilsstadir,65.2653,-14.3948,7.6,46,6,3.94,IS,1715170032
355,sarykemer,43.0,71.5,28.71,39,85,6.24,KZ,1715170177
356,lagoa,39.05,-27.9833,16.23,79,41,4.72,PT,1715170177
357,itamaraca,-7.7478,-34.8256,29.03,82,93,5.92,BR,1715170177
358,preveza,38.95,20.75,21.95,68,20,4.63,GR,1715169919
359,petropavlovsk-kamchatsky,53.0452,158.6483,0.99,78,99,3.58,RU,1715170177
360,luwuk,-0.9516,122.7875,24.2,92,99,0.72,ID,1715170177
361,lompoc,34.6391,-120.4579,14.32,87,0,4.12,US,1715170177
362,fortuna,40.5982,-124.1573,7.51,97,100,0.0,US,1715170177
363,broome,42.2506,-75.833,19.38,89,20,4.12,US,1715170177
364,krasnyy yar,46.5331,48.3456,24.98,37,100,7.48,RU,1715170177
365,kargasok,59.0556,80.8572,11.65,38,73,7.6,RU,1715170177
366,polyarnyy,69.1989,33.4478,-0.31,71,100,5.63,RU,1715169890
367,kegen,43.0197,79.2203,17.62,46,49,2.61,KZ,1715170178
368,arroio grande,-32.2375,-53.0869,21.22,88,100,5.57,BR,1715170178
369,camamu,-13.9447,-39.1039,24.28,94,45,2.09,BR,1715170178
370,rosario,-32.9468,-60.6393,14.97,71,58,10.8,AR,1715169931
371,santa elena de uairen,4.6167,-61.1333,21.23,89,100,1.2,VE,1715170178
372,oboyan',51.2098,36.2792,12.64,42,31,7.11,RU,1715170178
373,carolina,18.3808,-65.9574,26.94,89,75,5.66,PR,1715170178
374,mount pearl,47.5166,-52.7813,5.81,95,100,6.17,CA,1715170178
375,george,-33.963,22.4617,16.29,73,8,3.38,ZA,1715170179
376,turkmenbasy,40.0222,52.9552,18.28,56,24,8.09,TM,1715170179
377,ilha solteira,-20.4328,-51.3425,26.87,52,4,5.73,BR,1715170146
378,kangding,30.0513,101.9603,9.86,99,100,1.76,CN,1715170179
379,wau,7.7029,27.9953,41.0,18,4,3.11,SS,1715170179
380,shuangjiang,26.1547,109.7138,18.25,94,100,0.6,CN,1715170179
381,dosso,13.049,3.1937,40.77,19,85,3.92,NE,1715170179
382,howard springs,-12.497,131.047,26.95,90,19,1.26,AU,1715170179
383,acarau,-2.8856,-40.12,27.65,78,73,4.26,BR,1715170083
384,jimo,36.3897,120.4622,18.71,34,0,2.4,CN,1715170179
385,san rafael,-34.6177,-68.3301,7.22,47,0,2.8,AR,1715170176
386,alice springs,-23.7,133.8833,14.75,58,0,2.57,AU,1715170180
387,fukura,34.25,134.7167,11.94,67,88,6.13,JP,1715170180
388,sai buri,6.7013,101.6168,28.8,73,6,3.14,TH,1715170180
389,faranah,10.0404,-10.7434,36.0,40,50,1.11,GN,1715170180
390,oswestry,52.862,-3.055,20.4,69,98,3.52,GB,1715170180
391,ouro preto do oeste,-10.7481,-62.2158,24.77,92,95,1.93,BR,1715169910
392,cahors,44.4167,1.3333,18.2,59,27,3.66,FR,1715170180
393,wenceslau braz,-23.8739,-49.8028,22.44,60,32,1.46,BR,1715170039
394,camiri,-20.05,-63.5167,22.04,87,26,0.51,BO,1715170030
395,cootamundra,-34.65,148.0333,13.86,72,70,7.04,AU,1715170180
396,dudinka,69.4058,86.1778,-6.85,87,40,3.58,RU,1715170180
397,kantunilkin,21.0917,-87.45,24.61,96,80,0.82,MX,1715170181
398,huntington,38.4193,-82.4452,18.52,95,0,2.57,US,1715170167
399,wailea,19.8858,-155.123,19.94,93,100,2.06,US,1715170181
400,kapa'a,22.0752,-159.319,23.18,85,75,5.66,US,1715170181
401,glendive,47.1053,-104.7125,9.79,93,100,6.69,US,1715170181
402,san jose del guaviare,2.5729,-72.6459,23.86,98,100,0.16,CO,1715170181
403,schlangenbad,50.1,8.1,16.42,67,62,1.79,DE,1715170181
404,burang,30.25,81.1667,4.47,75,96,2.1,CN,1715170181
405,madang,-5.2246,145.7966,24.46,96,100,2.28,PG,1715170181
406,happy valley-goose bay,53.3168,-60.3315,1.17,80,100,7.72,CA,1715170181
407,lochbuie,40.0072,-104.7161,5.51,44,20,6.69,US,1715170182
408,coeur d'alene,47.6777,-116.7805,7.71,73,100,0.0,US,1715170182
409,yinchuan,38.4681,106.2731,26.15,27,22,8.29,CN,1715170182
410,merizo village,13.2658,144.6691,28.31,90,100,5.22,GU,1715170182
411,bamboo flat,11.7,92.7167,32.05,66,20,3.09,IN,1715170182
412,khorixas,-20.3667,14.9667,34.08,19,4,7.04,NA,1715170182
413,namie,37.4833,141.0,10.55,84,100,3.02,JP,1715170182
414,chipinge,-20.1883,32.6236,27.26,19,0,3.56,ZW,1715170182
415,es castell,39.8795,4.2854,17.38,67,75,8.75,ES,1715170182
416,ceelbuur,4.685,46.6176,33.48,47,74,4.19,SO,1715170182
417,afaahiti,-17.75,-149.2833,23.93,85,62,7.37,PF,1715170182
418,brandon,27.9378,-82.2859,26.07,89,0,2.06,US,1715170183
419,barrouallie,13.2333,-61.2667,28.79,74,20,2.57,VC,1715170183
420,glace bay,46.1969,-59.957,9.62,76,22,2.68,CA,1715170183
421,iskateley,67.6803,53.1512,-4.99,88,100,7.15,RU,1715170183
422,nishinoomote,30.7333,131.0,19.06,71,2,8.6,JP,1715170183
423,barreirinha,-2.7933,-57.07,25.87,92,77,1.94,BR,1715170183
424,kone,-21.0595,164.8658,18.71,83,0,1.48,NC,1715170183
425,gadzhiyevo,69.2551,33.3362,-0.2,71,100,5.59,RU,1715169897
426,koz'modem'yansk,56.3367,46.5711,3.93,75,100,7.28,RU,1715169905
427,berbesti,44.9833,23.8833,16.87,83,100,4.32,RO,1715170184
428,lamarque,-39.423,-65.7021,7.43,45,17,8.26,AR,1715170184
429,gunnison,38.7,-107.0673,-6.78,89,43,2.57,US,1715170184
430,northam,51.0333,-4.2167,16.48,81,96,1.98,GB,1715170184
431,tahe,52.3333,124.7333,5.92,47,74,7.73,CN,1715170184
432,assab,13.0092,42.7394,31.12,69,10,5.23,ER,1715170184
433,yayladagi,35.9025,36.0627,20.14,57,4,4.32,TR,1715170184
434,braganca,-1.0536,-46.7656,27.28,94,15,1.01,BR,1715169947
435,zambezi,-13.5432,23.1047,32.5,26,58,3.83,ZM,1715170184
436,swift current,50.2834,-107.8014,9.45,93,100,8.23,CA,1715170184
437,puri,19.8,85.85,32.29,78,23,5.56,IN,1715170184
438,puerto baquerizo moreno,-0.9,-89.6,22.83,92,96,3.11,EC,1715170185
439,andergrove,-21.0833,149.1833,22.58,78,57,8.34,AU,1715170185
440,kiruna,67.8557,20.2251,0.51,51,100,7.72,SE,1715170185
441,susuman,62.7833,148.1667,-1.12,83,94,1.34,RU,1715170185
442,prince rupert,54.3161,-130.3201,6.26,89,100,5.71,CA,1715170185
443,midvagur,62.0511,-7.1939,7.46,100,100,8.23,FO,1715170185
444,peace river,56.2501,-117.286,5.92,52,69,2.82,CA,1715170185
445,nkove,-7.95,30.85,26.1,66,84,0.91,TZ,1715170185
446,astrakhan,46.3497,48.0408,24.95,29,0,9.83,RU,1715170185
447,benjamin aceval,-24.9667,-57.5667,28.34,47,58,4.15,PY,1715170185
448,newman,37.3138,-121.0208,12.25,41,11,4.47,US,1715170185
449,sao vicente,-23.9631,-46.3919,30.1,94,0,1.03,BR,1715169982
450,dundaga,57.5167,22.35,8.27,47,70,3.51,LV,1715170186
451,kulhudhuffushi,6.6221,73.07,29.97,72,98,5.04,MV,1715170186
452,plastun,44.7561,136.2939,1.25,94,7,0.96,RU,1715170186
453,kas,36.2018,29.6377,23.89,43,30,3.46,TR,1715170186
454,ixtapa,20.7,-105.2,22.35,94,40,1.03,MX,1715170186
455,ergani,38.2653,39.7621,20.01,33,26,3.29,TR,1715170186
456,abu jibeha,11.4562,31.2285,39.19,6,2,4.67,SD,1715170186
457,kapuskasing,49.4169,-82.4331,0.05,100,100,3.6,CA,1715170186
458,murehwa,-17.6432,31.784,27.9,14,0,3.64,ZW,1715170186
459,nova sintra,14.8667,-24.7167,24.35,73,1,6.98,CV,1715170186
460,cabinda,-5.55,12.2,29.9,70,98,4.42,AO,1715170010
461,codrington,-38.2667,141.9667,11.68,92,22,1.47,AU,1715170186
462,dunedin,-45.8742,170.5036,4.33,91,90,0.45,NZ,1715170187
463,siwa oasis,29.2041,25.5195,30.88,14,14,5.65,EG,1715170187
464,yoichi,43.2039,140.7703,5.28,76,100,3.17,JP,1715170187
465,ciudad lazaro cardenas,17.9583,-102.2,23.16,83,100,1.54,MX,1715170187
466,westport,41.1415,-73.3579,17.75,92,100,3.09,US,1715170136
467,sinjai,-5.1241,120.253,24.97,92,48,2.12,ID,1715170187
468,fale old settlement,-9.3852,-171.2468,29.42,73,100,4.29,TK,1715170187
469,salinopolis,-0.6136,-47.3561,28.22,82,12,3.98,BR,1715169957
470,ituango,7.1712,-75.764,20.57,96,89,0.25,CO,1715170187
471,tafresh,34.692,50.013,16.76,20,0,10.52,IR,1715170187
472,rio claro,-22.4114,-47.5614,25.78,68,16,6.14,BR,1715170187
473,namibe,-15.1961,12.1522,28.99,53,21,6.23,AO,1715170187
474,sobinka,55.9855,40.0111,5.03,49,95,5.35,RU,1715169888
475,kyzyl-mazhalyk,51.1333,90.6,16.06,38,100,3.58,RU,1715170188
476,akjoujt,19.6969,-14.4164,40.74,6,14,3.55,MR,1715170188
477,mayya,61.7333,130.2811,6.62,73,100,2.11,RU,1715170188
478,nouadhibou,20.931,-17.0347,22.99,68,20,6.17,MR,1715170188
479,pyt-yakh,60.7499,72.8582,2.03,66,71,2.63,RU,1715170188
480,champerico,14.3,-91.9167,28.25,72,100,3.1,GT,1715170188
481,matadi,-5.8167,13.45,34.95,50,97,1.83,CD,1715170188
482,ventspils,57.3894,21.5606,6.96,76,0,4.12,LV,1715170188
483,stawell,-37.05,142.7667,11.1,59,3,2.67,AU,1715170188
484,obidos,-1.9175,-55.5181,26.67,85,77,1.19,BR,1715170147
485,coahuayana de hidalgo,18.7,-103.6583,20.86,70,100,0.91,MX,1715170189
486,doctor juan leon mallorquin,-25.4,-55.2667,24.85,54,56,2.57,PY,1715170189
487,broken hill,-31.95,141.4333,16.56,52,49,4.95,AU,1715170189
488,kladanj,44.2264,18.6914,18.4,63,95,2.32,BA,1715170189
489,ponta delgada,37.7333,-25.6667,19.4,94,40,4.12,PT,1715170189
490,islamorada,24.9243,-80.6278,27.23,88,16,4.05,US,1715169944
491,bintulu,3.1667,113.0333,27.16,84,100,0.52,MY,1715170189
492,amga,60.8953,131.9608,3.64,96,100,2.98,RU,1715170189
493,bathsheba,13.2167,-59.5167,29.34,79,40,6.17,BB,1715170189
494,prineville,44.2999,-120.8345,0.57,91,20,1.54,US,1715170189
495,lerwick,60.1545,-1.1494,11.0,89,100,7.63,GB,1715170190
496,bulawayo,-20.15,28.5833,28.59,13,0,5.48,ZW,1715170190
497,springwood,-27.6118,153.129,19.16,85,67,0.45,AU,1715170190
498,tyazhinskiy,56.116,88.524,12.61,51,88,6.86,RU,1715170190
499,tabou,4.423,-7.3528,28.59,79,88,5.1,CI,1715170190
500,kafr az zayyat,30.8248,30.8181,32.6,9,1,2.56,EG,1715170190
501,retreat,38.8245,-85.8533,18.3,100,1,1.27,US,1715170190
502,fort william,56.8165,-5.1121,15.17,77,100,3.55,GB,1715170190
503,santana,-0.0583,-51.1817,26.1,94,75,1.54,BR,1715170190
504,roma,43.2128,-75.4557,17.15,94,100,2.06,US,1715170190
505,puerto aysen,-45.4,-72.7,3.18,99,99,0.95,CL,1715170017
506,freetown,8.484,-13.2299,30.08,71,76,2.87,SL,1715170190
507,samdari,25.8167,72.5833,42.78,9,2,1.95,IN,1715170191
508,deutschlandsberg,46.8153,15.2222,15.0,84,100,0.9,AT,1715170191
509,igarka,67.4667,86.5833,-0.55,99,100,5.81,RU,1715170191
510,stephenville,32.2207,-98.2023,23.97,93,58,4.12,US,1715169993
511,guercif,34.2257,-3.3536,28.3,17,98,4.48,MA,1715170191
512,sultanah,24.4926,39.5857,35.25,4,0,5.14,SA,1715170191
513,fallon,39.4735,-118.7774,3.29,55,0,0.0,US,1715170191
514,guiyang,26.5833,106.7167,16.27,94,100,3.0,CN,1715169968
515,myanaung,18.2833,95.3167,34.23,40,42,4.49,MM,1715170191
516,margate,51.3813,1.3862,14.5,70,10,1.79,GB,1715170191
517,la serena,-29.9078,-71.2542,13.71,76,0,0.09,CL,1715170191
518,ad dawadimi,24.5077,44.3924,32.64,15,0,2.13,SA,1715170192
519,baijiantan,45.6333,85.1833,29.71,18,91,6.78,CN,1715170192
520,hirara,24.8,125.2833,24.54,55,58,8.48,JP,1715170192
521,borogontsy,62.6683,131.1683,2.99,81,100,2.9,RU,1715170192
522,al ghayzah,16.2079,52.176,32.73,61,0,7.05,YE,1715170003
523,saint-christol-les-ales,44.0833,4.0833,20.73,50,66,6.73,FR,1715170192
524,tadine,-21.55,167.8833,20.86,73,1,5.74,NC,1715169980
525,rengasdengklok,-6.1592,107.2981,30.07,74,96,1.92,ID,1715170192
526,axim,4.8699,-2.2405,29.9,74,99,3.17,GH,1715170192
527,armidale,-30.5167,151.65,7.35,100,78,3.15,AU,1715170192
528,palmer,42.1584,-72.3287,15.48,87,100,1.54,US,1715170124
529,st. paul,44.9444,-93.0933,12.14,86,0,0.0,US,1715169924
530,paracuru,-3.41,-39.0306,29.5,76,85,4.42,BR,1715170193
531,kiunga,-6.1219,141.2906,23.44,99,100,0.38,PG,1715170193
532,xuanzhou,30.9525,118.7553,17.56,61,7,2.74,CN,1715170193
533,saint-philippe,-21.3585,55.7679,26.77,77,39,7.8,RE,1715170193
534,tarija,-21.5355,-64.7296,21.37,23,8,3.02,BO,1715170193
535,holualoa,19.6228,-155.9522,22.91,83,75,5.14,US,1715170193
536,carutapera,-1.195,-46.02,27.54,88,10,2.7,BR,1715170193
537,aoulef,26.9667,1.0833,38.34,4,97,1.2,DZ,1715170193
538,pauini,-7.7136,-66.9764,25.0,89,100,0.91,BR,1715169918
539,baganga,7.5739,126.56,26.71,85,93,0.92,PH,1715170193
540,puerto real,36.5282,-6.1901,27.09,44,0,5.14,ES,1715170193
541,san angelo,31.4638,-100.437,22.94,90,0,4.12,US,1715170194
542,slave lake,55.2834,-114.769,4.92,60,100,3.92,CA,1715170194
543,vershino-darasunskiy,52.35,115.5167,7.61,30,0,1.56,RU,1715170194
544,aswan,24.0934,32.907,34.57,8,1,2.99,EG,1715170194
545,lihue,21.9789,-159.3672,22.77,80,75,5.66,US,1715170194
546,kokopo,-4.352,152.2633,26.68,85,99,4.49,PG,1715170194
547,tegueste,28.5167,-16.3167,25.64,22,0,4.12,ES,1715170194
548,tolanaro,-25.0319,46.9987,25.64,71,0,7.0,MG,1715170194
549,tangalle,6.024,80.7911,28.81,82,100,4.66,LK,1715170194
550,flin flon,54.7682,-101.865,3.91,81,20,2.06,CA,1715169945
551,effium,6.6292,8.0593,35.65,49,91,3.04,NG,1715170195
552,zaysan,47.4667,84.8667,20.42,40,15,4.73,KZ,1715170195
553,mount pleasant,32.7941,-79.8626,25.59,88,0,2.57,US,1715169973
554,santa ana,33.7456,-117.8678,14.59,87,100,1.54,US,1715170055
555,tojsici,44.5011,18.7856,19.85,68,40,2.06,BA,1715170195
556,araguaina,-7.1911,-48.2072,26.05,67,90,1.82,BR,1715169969
557,ostersund,63.1792,14.6357,2.01,93,100,4.63,SE,1715170195
558,jolo,6.05,121.0167,26.73,85,96,1.25,PH,1715170195
559,alesund,62.4723,6.1549,13.51,66,20,3.09,NO,1715169938
560,villa gesell,-37.2639,-56.973,13.92,91,80,9.76,AR,1715170195
561,remire-montjoly,4.9167,-52.2667,27.02,94,75,1.54,GF,1715170195
562,saint-pierre,-21.3393,55.4781,26.82,61,0,15.43,RE,1715170196
563,sonoita,31.85,-112.8333,17.45,39,0,2.73,MX,1715170196
564,jamundi,3.2607,-76.535,21.98,98,100,0.32,CO,1715170107
565,bichura,50.5881,107.6022,12.42,40,86,0.56,RU,1715170196
566,shagonar,51.5333,92.8,11.41,65,100,4.07,RU,1715170196
567,verkhotur'ye,58.8627,60.8054,16.68,69,100,5.12,RU,1715170196
568,qamdo,31.1667,97.2333,8.01,47,61,2.76,CN,1715170196
569,inhambane,-23.865,35.3833,27.34,52,0,4.12,MZ,1715170196
570,ndele,8.4109,20.6473,43.77,8,94,3.13,CF,1715170196
571,dongola,19.1667,30.4833,36.87,5,1,5.58,SD,1715170196
572,nehe,48.4833,124.8333,14.12,36,99,10.04,CN,1715170196
573,tazacorte,28.629,-17.9293,23.97,79,20,4.47,ES,1715170197
574,mamou,10.5,-12.0,33.48,42,12,3.18,GN,1715170197
575,mata-utu,-13.2816,-176.1745,29.4,79,74,5.31,WF,1715170197
576,agnita,45.9667,24.6167,17.95,88,98,2.23,RO,1715170197
577,yatou,37.15,122.3833,12.11,76,0,2.42,CN,1715170197
578,wenling,28.3669,121.36,15.84,82,47,5.16,CN,1715170123
579,durazno,-33.4131,-56.5006,17.97,94,100,6.17,UY,1715169988
580,linjiang,41.8069,126.9078,9.39,58,47,0.93,CN,1715170197
581,borzya,50.3833,116.5167,12.38,21,0,3.09,RU,1715170197
582,woolgoolga,-30.1106,153.2007,15.93,76,69,3.79,AU,1715170197
583,hithadhoo,-0.6,73.0833,29.32,74,99,5.74,MV,1715170197
584,maintirano,-18.0667,44.0167,28.68,51,0,3.63,MG,1715170198
585,yerofey pavlovich,53.9667,121.9667,4.02,43,45,4.12,RU,1715170198
586,san carlos,9.6612,-68.5827,28.02,71,92,1.35,VE,1715170198
587,najran,17.4924,44.1277,36.36,17,18,3.62,SA,1715170198
588,qarauyl,48.9451,79.255,20.01,38,6,5.69,KZ,1715170198
589,illela,13.7292,5.2975,42.44,16,84,4.38,NG,1715170198
590,pariaman,-0.619,100.12,30.03,80,48,2.13,ID,1715170198
591,devin,41.7433,24.4,18.91,74,100,1.7,BG,1715169901
592,mogocha,53.7333,119.7667,5.33,37,61,4.31,RU,1715170198
593,khabary,53.6259,79.5345,18.93,34,42,3.86,RU,1715170199
594,kyaikto,17.3,97.0167,30.44,65,0,3.96,MM,1715170199
595,ocean city,39.2776,-74.5746,18.43,94,100,2.68,US,1715170013
596,umea,63.8284,20.2597,4.96,33,0,4.63,SE,1715170027
597,murzuq,25.9155,13.9184,38.12,6,0,8.5,LY,1715170199
598,berezovyy,51.6667,135.7,10.26,56,57,1.0,RU,1715170199
599,lhasa,29.65,91.1,12.92,42,100,2.15,CN,1715170199
600,tchintabaraden,15.8969,5.7985,41.98,12,87,2.29,NE,1715170199
601,tarawa,1.419,172.984,29.05,79,20,4.12,KI,1715170199
602,nova vicosa,-17.8919,-39.3719,27.66,72,29,3.22,BR,1715170200
603,port isabel,26.0734,-97.2086,27.02,90,100,5.66,US,1715170200
604,thinadhoo,0.5333,72.9333,29.27,80,95,8.06,MV,1715170200
605,caiaponia,-16.9567,-51.8103,23.68,60,26,2.5,BR,1715170200
