City_ID,City,Lat,Lng,Max Temp,Humidity,Cloudiness,Wind Speed,Country,Date
0,polyarnyy,69.1989,33.4478,21.16,73,90,6.02,RU,1715119749
1,timimoun,29.2639,0.231,86.92,6,54,5.26,DZ,1715119749
2,perelyub,51.8667,50.3667,56.71,45,65,12.75,RU,1715119749
3,tiksi,71.6872,128.8694,29.48,98,100,9.37,RU,1715119749
4,waitangi,-43.9535,-176.5597,50.83,74,21,1.99,NZ,1715119749
5,papatowai,-46.5619,169.4708,48.18,90,99,14.0,NZ,1715119749
6,bovalino,38.149,16.174,68.34,61,100,6.31,IT,1715119749
7,constantia,44.1833,28.65,63.7,86,100,8.84,RO,1715119750
8,esquina,-30.0144,-59.5272,72.7,94,100,3.56,AR,1715119750
9,sarpol-e zahab,34.4611,45.8626,61.86,62,55,3.87,IR,1715119750
10,tazovsky,67.4667,78.7,12.09,95,96,9.51,RU,1715119750
11,kailua-kona,19.6406,-155.9956,82.36,76,40,9.22,US,1715119750
12,nyurba,63.2842,118.3319,30.94,89,51,12.28,RU,1715119750
13,north bend,43.4065,-124.2243,59.99,71,40,14.97,US,1715119750
14,port blair,11.6667,92.75,83.44,73,82,1.68,IN,1715119750
15,blackmans bay,-43.0167,147.3167,51.73,92,100,3.83,AU,1715119750
16,bredasdorp,-34.5322,20.0403,60.17,85,100,3.29,ZA,1715119750
17,puerto ayora,-0.7393,-90.3518,84.16,93,79,8.86,EC,1715119751
18,muynoq,43.7683,59.0214,70.88,58,100,19.17,UZ,1715119751
19,talnakh,69.4865,88.3972,5.2,96,94,5.66,RU,1715119751
20,turpan,42.9333,89.1667,81.28,29,100,1.14,CN,1715119751
21,malakanagiri,18.35,81.9,78.49,72,99,5.59,IN,1715119751
22,ust-nera,64.5667,143.2,34.83,83,100,4.45,RU,1715119751
23,anadyr,64.75,177.4833,19.9,67,75,8.95,RU,1715119638
24,bethel,41.3712,-73.414,79.63,25,0,6.91,US,1715119598
25,koryazhma,61.3143,47.1691,30.9,59,73,7.27,RU,1715119751
26,thompson,55.7435,-97.8558,59.56,39,11,14.76,CA,1715119751
27,port alfred,-33.5906,26.891,67.17,94,57,5.99,ZA,1715119751
28,goure,13.9835,10.2704,91.33,10,98,6.15,NE,1715119752
29,mount gambier,-37.8333,140.7667,46.24,96,9,4.61,AU,1715119752
30,fort bragg,35.139,-79.006,87.91,52,75,12.66,US,1715119752
31,ilulissat,69.2167,-51.1,24.82,74,100,3.44,GL,1715119752
32,nemuro,43.3236,145.575,37.15,89,100,19.24,JP,1715119752
33,happy valley-goose bay,53.3168,-60.3315,39.29,75,98,12.33,CA,1715119752
34,port-aux-francais,-49.35,70.2167,40.44,72,12,34.23,TF,1715119752
35,minas de marcona,-15.2119,-75.1103,60.62,79,75,18.25,PE,1715119752
36,ambon,-3.6954,128.1814,81.88,95,40,3.44,ID,1715119752
37,natal,-5.795,-35.2094,82.62,83,20,4.61,BR,1715119525
38,avarua,-21.2078,-159.775,84.25,89,75,9.22,CK,1715119460
39,adamstown,-25.066,-130.1015,71.28,78,57,8.95,PN,1715119753
40,aasiaat,68.7098,-52.8699,24.76,93,100,5.55,GL,1715119753
41,nantucket,41.2835,-70.0995,61.09,87,100,6.91,US,1715119753
42,saint-pierre,-21.3393,55.4781,73.08,53,0,6.91,RE,1715119611
43,el porvenir,13.7617,-87.3458,92.53,39,18,9.51,HN,1715119753
44,saudarkrokur,65.7461,-19.6394,40.5,73,100,9.06,IS,1715119753
45,lipsko,51.3396,12.3713,51.01,89,0,3.44,DE,1715119753
46,albany,42.6001,-73.9662,75.88,35,44,6.96,US,1715119500
47,walvis bay,-22.9575,14.5053,59.09,78,0,11.1,NA,1715119754
48,dongola,19.1667,30.4833,78.31,16,0,11.14,SD,1715119754
49,wailua homesteads,22.0669,-159.378,81.03,74,20,14.97,US,1715119754
50,shagonar,51.5333,92.8,46.98,51,100,0.29,RU,1715119754
51,college,64.8569,-147.8028,52.12,55,75,1.01,US,1715119754
52,ageyevo,54.1588,36.4693,32.27,93,69,8.68,RU,1715119754
53,belokurikha,51.9959,84.9896,52.66,72,100,3.89,RU,1715119754
54,mont-dore,-22.2833,166.5833,75.18,99,65,7.9,NC,1715119754
55,siwa oasis,29.2041,25.5195,74.19,25,44,6.67,EG,1715119755
56,stettler,52.3168,-112.7186,40.75,97,100,25.84,CA,1715119755
57,invercargill,-46.4,168.35,47.01,95,100,7.0,NZ,1715119585
58,hasaki,35.7333,140.8333,64.8,89,100,6.24,JP,1715119755
59,qaqortoq,60.7167,-46.0333,33.17,61,87,1.32,GL,1715119755
60,lihue,21.9789,-159.3672,81.64,67,20,14.97,US,1715119755
61,stanley,54.868,-1.6985,46.42,93,0,3.44,GB,1715119755
62,lander,42.833,-108.7307,54.1,28,20,21.85,US,1715119683
63,plastun,44.7561,136.2939,38.48,77,49,2.26,RU,1715119755
64,kerikeri,-35.2268,173.9474,60.91,80,33,11.01,NZ,1715119755
65,puerto natales,-51.7236,-72.4875,30.7,88,100,1.95,CL,1715119755
66,cooma,-36.2333,149.1333,45.84,90,3,0.22,AU,1715119756
67,grytviken,-54.2811,-36.5092,27.64,76,29,9.26,GS,1715119756
68,ghat,24.9647,10.1728,92.95,16,99,14.32,LY,1715119756
69,zeya,53.75,127.2667,53.49,50,81,4.68,RU,1715119756
70,isafjordur,66.0755,-23.124,37.44,87,100,2.3,IS,1715119756
71,iqaluit,63.7506,-68.5145,32.7,55,43,11.01,CA,1715119746
72,colonia,50.9333,6.95,58.77,88,78,3.4,DE,1715119504
73,hawaiian paradise park,19.5933,-154.9731,77.88,81,100,6.91,US,1715119756
74,saynshand,44.8824,110.1163,63.77,20,49,9.64,MN,1715119757
75,fort mcmurray,56.7268,-111.381,51.31,87,100,11.5,CA,1715119757
76,isangel,-19.55,169.2667,75.63,72,11,14.32,VU,1715119668
77,madingou,-4.1536,13.55,78.62,87,77,2.59,CG,1715119757
78,hamilton,39.1834,-84.5333,78.75,81,100,13.8,US,1715119668
79,haiku-pauwela,20.9219,-156.3051,79.21,72,40,21.85,US,1715119757
80,georgetown,5.4112,100.3354,80.53,94,20,2.3,MY,1715119757
81,whitehorse,60.7161,-135.0538,46.02,42,82,15.99,CA,1715119757
82,edinburgh of the seven seas,-37.0676,-12.3116,62.26,78,100,44.31,SH,1715119757
83,hithadhoo,-0.6,73.0833,84.27,79,87,11.63,MV,1715119758
84,tura,25.5198,90.2201,70.99,79,100,3.96,IN,1715119758
85,pariaman,-0.619,100.12,78.85,93,100,8.63,ID,1715119758
86,badger,64.8,-147.5333,52.05,53,75,3.0,US,1715119758
87,awjilah,29.1081,21.2869,75.9,22,64,8.5,LY,1715119758
88,alice springs,-23.7,133.8833,53.15,82,89,0.0,AU,1715119758
89,ribeira grande,38.5167,-28.7,66.6,88,75,15.01,PT,1715119758
90,hirara,24.8,125.2833,76.46,66,9,14.25,JP,1715119758
91,raja,8.4596,25.678,85.08,29,53,2.64,SS,1715119758
92,yetkul',54.8221,61.588,46.04,55,74,13.53,RU,1715119758
93,utrik,11.2278,169.8474,82.36,73,100,18.3,MH,1715119759
94,nova vicosa,-17.8919,-39.3719,77.61,83,0,5.35,BR,1715119759
95,amga,60.8953,131.9608,42.62,76,100,6.96,RU,1715119759
96,alofi,-19.0595,-169.9187,80.49,94,100,8.05,NU,1715119759
97,sao gabriel da cachoeira,-0.1303,-67.0892,79.63,90,69,1.9,BR,1715119759
98,ad dabbah,18.05,30.95,79.77,15,2,11.36,SD,1715119759
99,yellowknife,62.456,-114.3525,54.12,78,100,16.11,CA,1715119591
100,vila velha,-20.3297,-40.2925,76.95,88,0,4.61,BR,1715119690
101,neftegorsk,52.802,51.166,62.38,49,24,18.12,RU,1715119759
102,ta`u,-14.2336,-169.5144,84.16,81,88,11.03,AS,1715119759
103,cill airne,52.05,-9.5167,51.84,87,100,3.09,IE,1715119759
104,port lincoln,-34.7333,135.8667,59.16,86,86,10.49,AU,1715119760
105,palikir - national government center,6.9248,158.1611,85.05,79,75,11.5,FM,1715119760
106,novobod,39.0108,70.1508,52.39,41,48,6.85,TJ,1715119760
107,belmonte,-15.8631,-38.8828,77.85,84,17,6.22,BR,1715119760
108,petropavlovsk-kamchatsky,53.0452,158.6483,34.39,78,100,8.01,RU,1715119600
109,port augusta,-32.5,137.7667,57.79,59,80,4.76,AU,1715119760
110,minab,27.1467,57.0801,86.61,38,0,3.29,IR,1715119760
111,west island,-12.1568,96.8225,80.58,78,1,11.5,CC,1715119760
112,aketi,2.7388,23.7833,81.07,61,98,1.92,CD,1715119760
113,kingston,17.997,-76.7936,86.16,74,40,13.8,JM,1715119518
114,peniche,39.3558,-9.3811,62.29,84,100,11.03,PT,1715119761
115,parchim,53.4263,11.8488,40.26,91,100,6.87,DE,1715119761
116,chonchi,-42.6128,-73.8092,45.61,91,16,2.8,CL,1715119761
117,cockburn town,21.4612,-71.1419,76.91,80,99,18.59,TC,1715119697
118,codrington,-38.2667,141.9667,48.69,94,24,7.16,AU,1715119761
119,mermoz boabab,14.7065,-17.4758,75.76,85,0,14.32,SN,1715119761
120,chukhloma,58.7525,42.6825,36.09,68,100,10.0,RU,1715119761
121,nha trang,12.25,109.1833,80.6,91,86,5.23,VN,1715119761
122,port mathurin,-19.6833,63.4167,78.46,61,43,24.07,MU,1715119761
123,mejit,10.2753,170.8646,81.79,79,81,18.72,MH,1715119761
124,nema,57.5067,50.5011,34.14,99,100,14.67,RU,1715119761
125,taoudenni,22.6783,-3.9836,90.86,6,24,2.13,ML,1715119762
126,araguaina,-7.1911,-48.2072,78.8,60,100,3.8,BR,1715119537
127,longyearbyen,78.2186,15.6401,35.44,69,75,9.22,SJ,1715119762
128,xiantao,30.3833,113.4,67.06,74,100,5.77,CN,1715119762
129,shenjiamen,29.9576,122.298,61.97,79,3,6.93,CN,1715119762
130,cannonvale,-20.2833,148.7,72.79,79,48,17.78,AU,1715119762
131,arkhangel'sk,64.5401,40.5433,28.13,80,20,6.71,RU,1715119762
132,judenburg,47.1667,14.6667,48.24,98,100,3.47,AT,1715119762
133,saint-philippe,-21.3585,55.7679,72.99,71,39,16.13,RE,1715119763
134,margaret river,-33.95,115.0667,58.53,71,46,11.39,AU,1715119763
135,san patricio,28.017,-97.5169,89.17,66,83,12.59,US,1715119763
136,puerto deseado,-47.7503,-65.8938,38.77,95,100,15.5,AR,1715119763
137,chenaran,36.6455,59.1212,66.45,45,76,1.36,IR,1715119763
138,dudinka,69.4058,86.1778,5.68,100,94,5.01,RU,1715119763
139,ironwood,46.4547,-90.171,55.74,82,100,10.36,US,1715119763
140,olonkinbyen,70.9221,-8.7187,32.5,93,8,16.31,SJ,1715119763
141,sisimiut,66.9395,-53.6735,26.55,80,100,2.8,GL,1715119764
142,ikalamavony,-21.15,46.5833,64.33,78,51,9.24,MG,1715119764
143,felipe carrillo puerto,19.5833,-88.05,97.12,34,0,8.66,MX,1715119581
144,hermanus,-34.4187,19.2345,57.79,83,99,8.95,ZA,1715119764
145,karratha,-20.7377,116.8463,74.77,69,0,2.46,AU,1715119764
146,olyokminsk,60.3736,120.4264,37.89,81,79,9.95,RU,1715119764
147,arraial do cabo,-22.9661,-42.0278,76.96,83,0,13.8,BR,1715119590
148,vanimo,-2.6741,141.3028,78.12,93,100,3.62,PG,1715119764
149,ushuaia,-54.8,-68.3,28.92,92,46,5.41,AR,1715119764
150,cidreira,-30.1811,-50.2056,72.75,86,28,8.59,BR,1715119764
151,al fulah,11.7329,28.3579,84.88,13,61,11.39,SD,1715119764
152,hassi messaoud,31.6804,6.0729,82.0,24,94,13.51,DZ,1715119765
153,ancud,-41.8697,-73.8203,45.61,74,21,8.52,CL,1715119765
154,kani keli,-12.9536,45.1033,81.66,73,20,18.52,YT,1715119765
155,pont rouge,48.8833,-72.0825,44.76,59,78,12.24,CA,1715119765
156,fada,9.5667,8.3,73.78,79,100,2.3,NG,1715119765
157,berwick-upon-tweed,55.7833,-2.0,49.42,87,100,7.65,GB,1715119630
158,murzuq,25.9155,13.9184,84.69,19,85,8.63,LY,1715119765
159,bardai,11.65,7.2333,83.61,44,99,7.92,NG,1715119765
160,kalmunai,7.4167,81.8167,80.53,86,85,7.61,LK,1715119765
161,mukalla,14.5425,49.1242,83.79,77,1,6.71,YE,1715119757
162,chauk,20.8833,94.8167,82.62,54,51,4.88,MM,1715119766
163,valparaiso,-33.0393,-71.6273,46.04,93,75,11.5,CL,1715119681
164,ar rahad,12.7167,30.65,85.05,13,62,14.0,SD,1715119766
165,kem',64.9555,34.5793,21.33,90,75,9.31,RU,1715119766
166,nova sintra,14.8667,-24.7167,74.84,74,3,16.28,CV,1715119766
167,mangrol,21.1167,70.1167,81.05,86,0,15.1,IN,1715119758
168,mek'ele,13.4967,39.4753,66.22,68,84,7.83,ET,1715119766
169,port macquarie,-31.4333,152.9167,59.9,67,49,4.61,AU,1715119766
170,florence,43.7667,11.25,58.1,94,75,1.14,IT,1715119700
171,cururupu,-1.8283,-44.8683,76.55,91,71,1.99,BR,1715119609
172,naze,28.3667,129.4833,66.52,67,47,5.5,JP,1715119767
173,dokshytsy,54.8924,27.7689,34.43,63,2,7.2,BY,1715119767
174,el granada,37.5027,-122.4694,74.8,65,0,17.27,US,1715119767
175,weno,7.4515,151.8468,76.95,100,100,8.05,FM,1715119767
176,uturoa,-16.7333,-151.4333,82.11,75,66,19.04,PF,1715119767
177,maceio,-9.6658,-35.7353,76.44,94,75,2.3,BR,1715119520
178,chinchilla,-26.75,150.6333,64.02,78,18,4.0,AU,1715119767
179,sandnessjoen,66.0217,12.6316,46.92,69,93,18.7,NO,1715119767
180,vernon,50.2581,-119.2691,62.76,31,97,5.01,CA,1715119767
181,yamada,39.4667,141.95,51.31,89,91,4.97,JP,1715119768
182,tsiombe,-25.3,45.4833,68.74,86,0,6.91,MG,1715119768
183,fortuna,40.5982,-124.1573,59.94,66,0,20.71,US,1715119768
184,dryden,49.7833,-92.7503,59.43,57,100,12.3,CA,1715119768
185,port saint john's,-31.6229,29.5448,74.21,48,0,7.02,ZA,1715119768
186,trincomalee,8.5711,81.2335,84.79,75,77,5.55,LK,1715119768
187,sao jose da coroa grande,-8.8978,-35.1478,80.62,81,54,8.93,BR,1715119597
188,kargasok,59.0556,80.8572,46.96,68,100,11.01,RU,1715119768
189,kuala terengganu,5.3302,103.1408,78.93,84,54,2.64,MY,1715119768
190,omutinskiy,56.4745,67.6709,38.88,70,97,5.21,RU,1715119768
191,khandyga,62.6667,135.6,41.85,75,100,4.94,RU,1715119768
192,saipan,15.1355,145.701,86.7,66,40,11.5,MP,1715119769
193,mwinilunga,-11.7358,24.4293,66.2,76,69,2.01,ZM,1715119769
194,jiuquan,39.7432,98.5174,60.73,18,21,7.38,CN,1715119769
195,rancho palos verdes,33.7445,-118.387,77.94,75,0,11.99,US,1715119478
196,keetmanshoop,-26.5833,18.1333,62.69,43,5,10.4,NA,1715119769
197,namibe,-15.1961,12.1522,74.3,64,2,7.54,AO,1715119769
198,port elizabeth,-33.918,25.5701,68.09,92,99,8.01,ZA,1715119769
199,frutal,-20.0247,-48.9406,78.78,53,7,5.21,BR,1715119769
200,dergachi,51.2328,48.7659,58.3,35,56,15.66,RU,1715119769
201,vadso,70.0744,29.7487,28.56,86,75,8.05,NO,1715119770
202,brookings,44.3114,-96.7984,61.38,58,100,19.57,US,1715119648
203,jamestown,42.097,-79.2353,75.52,46,40,10.36,US,1715119524
204,st. john's,47.5649,-52.7093,50.27,91,75,3.44,CA,1715119472
205,al lagowa,11.4,29.1333,88.16,12,43,11.3,SD,1715119770
206,inirida,3.8653,-67.9239,81.57,90,73,0.25,CO,1715119770
207,poyarkovo,49.6,128.6833,60.17,32,92,10.78,RU,1715119770
208,tommot,58.9564,126.2925,37.81,100,100,0.58,RU,1715119770
209,qa'en,33.7265,59.1844,66.33,53,6,1.43,IR,1715119770
210,alappuzha,9.49,76.3264,84.07,79,63,7.92,IN,1715119771
211,atafu village,-8.5421,-172.5159,84.52,77,97,11.61,TK,1715119771
212,sarikei,2.1167,111.5167,75.42,100,100,0.31,MY,1715119771
213,carutapera,-1.195,-46.02,77.52,94,68,5.66,BR,1715119771
214,six-fours-les-plages,43.0938,5.84,59.18,66,4,1.99,FR,1715119771
215,iskateley,67.6803,53.1512,17.02,95,100,10.0,RU,1715119771
216,"kampung bukit tinggi, bentong",3.35,101.8167,75.78,94,97,2.26,MY,1715119771
217,lebu,-37.6167,-73.65,48.25,72,6,4.85,CL,1715119771
218,udachny,66.4167,112.4,31.44,98,96,18.32,RU,1715119771
219,wuzhou,23.4833,111.3167,72.19,96,100,2.68,CN,1715119771
220,shiguai,40.7058,110.2856,58.42,24,2,4.97,CN,1715119772
221,fumel,44.4986,0.9651,54.59,93,0,4.85,FR,1715119772
222,selkirk,50.1436,-96.8845,60.04,78,100,11.01,CA,1715119772
223,zhezqazghan,47.7833,67.7667,55.63,56,10,11.43,KZ,1715119772
224,vilyuchinsk,52.9306,158.4028,35.87,82,100,7.23,RU,1715119772
225,nar'yan-mar,67.6713,53.087,17.11,95,100,10.0,RU,1715119772
226,severo-yeniseyskiy,60.3725,93.0408,26.58,96,100,4.0,RU,1715119772
227,touros,-5.1989,-35.4608,78.53,84,78,8.95,BR,1715119559
228,axim,4.8699,-2.2405,81.95,82,46,8.19,GH,1715119772
229,kill devil hills,36.0307,-75.676,78.82,68,40,6.91,US,1715119702
230,thinadhoo,0.5333,72.9333,84.99,78,26,14.18,MV,1715119773
231,inderbor,48.55,51.7833,57.52,69,100,10.42,KZ,1715119773
232,lerwick,60.1545,-1.1494,42.8,79,22,0.92,GB,1715119773
233,kastsyukovichy,53.3516,32.0506,34.16,81,1,6.69,BY,1715119773
234,al jawf,29.5,38.75,66.07,29,0,4.88,SA,1715119773
235,khorugh,37.4897,71.553,41.22,54,2,2.13,TJ,1715119773
236,tabuk,17.4189,121.4443,74.28,87,26,1.99,PH,1715119773
237,magadan,59.5667,150.8,31.53,98,98,7.27,RU,1715119773
238,aktau,43.65,51.2,55.98,91,83,26.17,KZ,1715119773
239,skelleftea,64.7507,20.9528,25.16,89,15,2.3,SE,1715119774
240,afaahiti,-17.75,-149.2833,82.27,76,76,14.85,PF,1715119774
241,vorgashor,67.5833,63.95,-2.2,100,73,5.03,RU,1715119774
242,el nido,11.1858,119.3956,81.91,78,48,4.05,PH,1715119674
243,kruisfontein,-34.0033,24.7314,65.88,93,100,11.25,ZA,1715119774
244,sitka,57.0531,-135.33,48.09,66,100,13.8,US,1715119500
245,muromtsevo,56.3724,75.2418,40.21,93,13,5.93,RU,1715119774
246,whitecourt,54.1502,-115.6855,54.5,34,100,14.12,CA,1715119774
247,sarh,9.1429,18.3923,89.65,27,93,1.83,TD,1715119774
248,lazaro cardenas,17.9583,-102.2,83.64,53,99,14.25,MX,1715119589
249,jarvenpaa,60.4737,25.0899,38.75,64,0,9.22,FI,1715119574
250,punta arenas,-53.15,-70.9167,37.51,87,100,8.05,CL,1715119579
251,lucapa,-8.4192,20.7447,72.55,57,100,2.1,AO,1715119775
252,enewetak,11.3474,162.3373,82.09,79,95,19.8,MH,1715119775
253,balaguer,41.7912,0.8109,58.35,74,6,8.1,ES,1715119775
254,cabo san lucas,22.8909,-109.9124,85.6,39,100,10.36,MX,1715119677
255,cam ranh,11.9214,109.1591,80.56,78,40,6.91,VN,1715119775
256,vilyuysk,63.7553,121.6247,37.0,85,84,10.0,RU,1715119588
257,oran,35.6911,-0.6417,64.11,82,40,6.91,DZ,1715119637
258,mezhdurechenskiy,59.6,65.9333,30.02,88,56,3.91,RU,1715119775
259,kaa-khem,51.6833,94.7333,50.41,55,43,5.46,RU,1715119775
260,portland,45.5234,-122.6762,60.96,70,75,4.61,US,1715119560
261,berezovo,63.9381,65.0419,30.38,98,100,8.93,RU,1715119776
262,flying fish cove,-10.4217,105.6791,76.68,100,100,9.22,CX,1715119776
263,kodiak,57.79,-152.4072,42.31,81,100,6.91,US,1715119776
264,horta,38.5333,-28.6333,65.84,94,75,15.01,PT,1715119776
265,tafuna,-14.3358,-170.72,89.55,70,75,5.75,AS,1715119776
266,tarata,-17.6167,-66.0167,70.54,39,0,6.02,BO,1715119776
267,marsa alam,25.0757,34.8918,73.33,41,0,8.03,EG,1715119542
268,mareeba,-17.0,145.4333,70.52,91,69,4.85,AU,1715119776
269,tamanrasset,22.785,5.5228,84.11,11,20,5.75,DZ,1715119776
270,peligros,37.2323,-3.629,62.82,55,0,4.61,ES,1715119777
271,kattivakkam,13.2167,80.3167,88.11,86,56,5.66,IN,1715119777
272,kangding,30.0513,101.9603,50.16,99,100,3.98,CN,1715119777
273,road town,18.4167,-64.6167,75.24,94,40,3.44,VG,1715119777
274,yanchep,-31.55,115.6833,62.73,50,2,11.14,AU,1715119777
275,east wenatchee bench,47.4257,-120.2812,61.79,31,0,25.32,US,1715119777
276,mili,6.0815,171.735,82.69,84,97,18.86,MH,1715119777
277,fort st. john,56.2499,-120.8529,57.24,22,93,14.2,CA,1715119777
278,cottesloe,-32.0,115.7667,63.0,62,7,12.66,AU,1715119778
279,sona,45.4388,10.8255,58.55,91,75,3.44,IT,1715119778
280,at taj,24.2049,23.2857,73.71,18,28,8.55,LY,1715119778
281,evanston,42.0411,-87.6901,76.64,71,75,19.57,US,1715119576
282,garwolin,51.8975,21.6147,47.79,77,71,8.52,PL,1715119778
283,brisas de zicatela,15.8369,-97.0419,85.71,66,79,12.59,MX,1715119778
284,kavaratti,10.5669,72.642,86.29,69,87,12.84,IN,1715119778
285,general acha,-37.377,-64.6043,58.86,77,79,4.85,AR,1715119778
286,puerto baquerizo moreno,-0.9,-89.6,81.59,74,40,12.66,EC,1715119778
287,torquay,50.4638,-3.5143,55.71,90,12,5.19,GB,1715119779
288,carnarvon,-24.8667,113.6333,67.03,45,98,11.16,AU,1715119779
289,ritchie,-29.038,24.6028,66.45,28,0,9.17,ZA,1715119779
290,bakchar,57.0186,82.0711,45.05,95,100,5.95,RU,1715119779
291,thunder bay,48.4001,-89.3168,57.11,44,100,12.66,CA,1715119557
292,san luis de la loma,17.2706,-100.8939,86.99,46,100,14.23,MX,1715119779
293,manokwari,-0.8667,134.0833,79.09,86,100,4.0,ID,1715119779
294,wotho,10.1657,166.0102,82.51,74,63,18.72,MH,1715119779
295,bilibino,68.0546,166.4372,28.4,88,94,2.57,RU,1715119779
296,ballina,-28.8667,153.5667,59.77,73,98,12.48,AU,1715119779
297,xining,36.6167,101.7667,50.58,47,13,3.09,CN,1715119581
298,colchani,-20.3,-66.9333,50.36,24,2,14.52,BO,1715119780
299,kiunga,-6.1219,141.2906,74.79,100,100,3.71,PG,1715119780
300,hadibu,12.65,54.0333,84.31,74,6,1.5,YE,1715119780
301,kidal,18.4411,1.4078,92.48,10,100,9.24,ML,1715119780
302,santana,-0.0583,-51.1817,82.58,83,100,3.44,BR,1715119587
303,spring creek,40.7266,-115.5859,44.29,55,99,8.01,US,1715119780
304,talara,-4.5772,-81.2719,74.16,73,75,18.41,PE,1715119780
305,pacific grove,36.6177,-121.9166,71.38,67,0,12.66,US,1715119780
306,montevideo,-34.8335,-56.1674,69.82,94,75,12.66,UY,1715119659
307,nouadhibou,20.931,-17.0347,64.92,85,0,13.51,MR,1715119780
308,kralendijk,12.15,-68.2667,85.98,74,20,17.27,BQ,1715119554
309,okhotsk,59.3833,143.3,33.64,84,72,9.75,RU,1715119781
310,puerto penasco,31.3167,-113.5333,82.38,59,0,13.8,MX,1715119781
311,salinopolis,-0.6136,-47.3561,79.84,87,100,8.72,BR,1715119564
312,itabira,-19.6192,-43.2269,63.9,89,0,2.95,BR,1715119781
313,xilin hot,43.9667,116.0333,54.63,25,7,6.67,CN,1715119781
314,malpica,43.3228,-8.8105,57.36,69,100,12.48,ES,1715119781
315,nadvoitsy,63.8667,34.3167,22.41,83,47,9.89,RU,1715119781
316,saint croix,17.7397,-64.7388,78.96,85,27,1.01,VI,1715119781
317,christchurch,-43.5333,172.6333,51.42,87,3,1.14,NZ,1715119584
318,nepanagar,21.4667,76.4,84.18,52,0,11.68,IN,1715119757
319,uusikaupunki,60.8004,21.4084,34.32,66,54,7.02,FI,1715119782
320,fruita,39.1589,-108.729,65.55,18,0,24.16,US,1715119782
321,lepsy,46.235,78.9456,65.75,44,81,2.89,KZ,1715119782
322,pisco,-13.7,-76.2167,69.85,78,83,24.16,PE,1715119782
323,sao raimundo nonato,-9.0153,-42.6994,84.27,51,98,8.72,BR,1715119592
324,orosei,40.3798,9.6929,57.43,76,3,5.46,IT,1715119782
325,bayanhongor,46.7167,100.1167,47.52,59,100,5.93,MN,1715119782
326,gadzhiyevo,69.2551,33.3362,23.2,72,97,6.58,RU,1715119782
327,tobarra,38.5921,-1.6919,63.18,53,28,2.24,ES,1715119782
328,macusani,-14.0833,-70.4333,45.64,81,78,4.03,PE,1715119783
329,saint-joseph,-21.3667,55.6167,71.98,70,24,15.21,RE,1715119783
330,alzamay,55.5562,98.6644,37.29,65,5,4.92,RU,1715119783
331,narwana,29.6167,76.1167,86.58,26,0,7.72,IN,1715119783
332,ahar,38.4774,47.0699,46.74,73,33,5.01,IR,1715119783
333,howrah,22.5892,88.3103,73.4,88,75,6.91,IN,1715119783
334,tobelo,1.7284,128.0095,81.48,79,100,3.78,ID,1715119783
335,noyabrsk,63.1994,75.4507,35.24,100,100,7.0,RU,1715119783
336,kerema,-7.9631,145.7785,79.65,83,100,1.45,PG,1715119783
337,zinder,13.8072,8.9881,92.08,11,97,6.15,NE,1715119783
338,sanctuary point,-35.1114,150.629,61.32,80,86,4.29,AU,1715119784
339,makokou,0.5738,12.8642,73.49,92,100,1.03,GA,1715119784
340,kedougou,12.5579,-12.1743,94.5,21,4,1.54,SN,1715119784
341,keflavik,64.0049,-22.5624,39.63,81,40,14.97,IS,1715119784
342,bam,29.106,58.357,82.56,19,3,8.79,IR,1715119784
343,odda,60.0691,6.5457,51.76,100,100,3.18,NO,1715119784
344,lagodekhi,41.8268,46.2767,56.3,92,79,0.96,GE,1715119784
345,nizhniy kuranakh,58.8353,125.4869,37.76,99,100,1.41,RU,1715119784
346,nehe,48.4833,124.8333,59.5,27,74,12.86,CN,1715119784
347,necochea,-38.5473,-58.7368,59.4,95,100,13.62,AR,1715119516
348,nabire,-3.3667,135.4833,77.25,91,100,3.36,ID,1715119785
349,fale old settlement,-9.3852,-171.2468,85.01,75,81,9.98,TK,1715119785
350,impfondo,1.6381,18.0667,77.63,76,93,1.16,CG,1715119785
351,kirakira,-10.4544,161.9205,83.07,78,100,8.86,SB,1715119785
352,revda,56.801,59.9303,41.5,86,100,13.35,RU,1715119785
353,teluknaga,-6.0989,106.6381,81.18,83,20,5.75,ID,1715119785
354,kourou,5.1552,-52.6478,82.45,84,100,7.45,GF,1715119785
355,yuktae-dong,40.0247,128.1597,49.96,81,4,4.74,KP,1715119785
356,waiuku,-37.25,174.75,55.33,70,5,4.52,NZ,1715119785
357,bahia honda,22.9036,-83.1592,87.03,61,18,13.69,CU,1715119785
358,kaoma,-14.7833,24.8,73.8,52,85,2.55,ZM,1715119785
359,lorengau,-2.0226,147.2712,80.85,89,99,17.0,PG,1715119786
360,maintirano,-18.0667,44.0167,75.61,72,15,7.36,MG,1715119786
361,bichena,10.45,38.2,65.84,48,99,2.17,ET,1715119786
362,sao joao da barra,-21.6403,-41.0511,77.09,88,0,10.76,BR,1715119493
363,novoagansk,61.9449,76.6625,34.75,98,100,10.6,RU,1715119786
364,zaozersk,69.4005,32.4476,16.23,83,86,5.3,RU,1715119786
365,pankrushikha,53.8319,80.3406,49.23,73,97,7.0,RU,1715119786
366,mount vernon,40.9126,-73.8371,82.63,40,40,20.71,US,1715119638
367,umea,63.8284,20.2597,30.13,59,0,5.75,SE,1715119620
368,maunabo,18.0072,-65.8993,79.7,98,21,8.12,PR,1715119787
369,vila franca do campo,37.7167,-25.4333,64.89,99,14,8.75,PT,1715119787
370,island harbour,50.724,-1.2758,56.19,78,17,1.01,GB,1715119787
371,teguise,29.0605,-13.564,64.62,77,20,11.5,ES,1715119787
372,geraldton,-28.7667,114.6,64.81,48,91,13.8,AU,1715119787
373,ichnya,50.8626,32.3942,38.32,85,26,6.15,UA,1715119787
374,luwuk,-0.9516,122.7875,73.38,91,37,3.58,ID,1715119639
375,beatrice,40.2681,-96.747,76.98,29,40,17.27,US,1715119787
376,abu,24.6,72.7,83.35,39,16,5.55,IN,1715119788
377,kranenburg,51.7833,6.0167,55.22,82,3,7.36,DE,1715119788
378,stephenville,32.2207,-98.2023,89.15,25,0,3.44,US,1715119588
379,alto barinas,8.5931,-70.2261,89.26,60,27,9.66,VE,1715119788
380,tolanaro,-25.0319,46.9987,72.55,84,81,14.54,MG,1715119788
381,crane,31.3974,-102.3501,91.94,8,0,16.04,US,1715119788
382,bonnyville,54.2668,-110.735,45.25,97,100,9.35,CA,1715119788
383,demre,36.2537,29.9777,60.91,56,3,6.62,TR,1715119788
384,san luis,-33.295,-66.3356,59.61,46,0,1.39,AR,1715119605
385,okha,53.5739,142.9478,31.24,81,96,8.99,RU,1715119583
386,hwange,-18.3693,26.5019,70.41,50,1,1.95,ZW,1715119789
387,kharan,28.5833,65.4167,86.05,14,0,8.3,PK,1715119789
388,kristiansund,63.1115,7.732,48.25,93,100,10.36,NO,1715119789
389,bonthe,7.5264,-12.505,82.81,82,21,5.32,SL,1715119789
390,puerto leguizamo,-0.1934,-74.7819,85.41,73,96,0.2,CO,1715119789
391,salida,37.7058,-121.0849,74.89,45,0,11.5,US,1715119698
392,tiraspol,46.8403,29.6433,59.99,90,100,6.73,MD,1715119789
393,mariehamn,60.0973,19.9348,36.82,75,0,3.44,AX,1715119789
394,barcelos,41.5388,-8.6151,64.85,76,100,4.97,PT,1715119789
395,jindabyne,-36.4167,148.6333,44.58,92,1,1.01,AU,1715119789
396,alghero,40.5589,8.3181,51.89,100,20,2.3,IT,1715119790
397,praia da vitoria,38.7333,-27.0667,66.76,95,40,18.12,PT,1715119790
398,senador jose porfirio,-2.5908,-51.9542,80.11,86,78,6.49,BR,1715119790
399,kuanda,56.3161,116.0806,41.49,63,76,13.65,RU,1715119790
400,coronel suarez,-37.4547,-61.9334,56.32,97,100,6.58,AR,1715119790
401,nuriootpa,-34.4833,139.0,53.65,72,0,8.79,AU,1715119743
402,saint-francois,46.4154,3.9054,53.04,87,0,10.36,FR,1715119790
403,arteche,12.2645,125.4048,79.63,87,100,6.17,PH,1715119790
404,ash shatrah,31.4117,46.1742,77.2,26,99,12.21,IQ,1715119790
405,lockwood,45.8191,-108.4149,48.42,54,100,33.38,US,1715119790
406,puerto armuelles,8.2833,-82.8667,86.09,69,61,4.0,PA,1715119790
407,bundaberg,-24.85,152.35,68.22,91,22,5.99,AU,1715119791
408,hinton,53.4001,-117.5857,52.93,41,100,11.56,CA,1715119791
409,kroya,-7.6331,109.2461,76.17,92,9,4.23,ID,1715119791
410,ajdabiya,30.7554,20.2263,72.18,32,56,4.72,LY,1715119791
411,el calafate,-50.3408,-72.2768,27.66,69,91,1.97,AR,1715119791
412,bull savanna,17.8868,-77.5902,80.44,76,12,7.9,JM,1715119791
413,shahrud,36.4182,54.9763,62.28,40,0,6.15,IR,1715119791
414,yoko,5.5333,12.3167,71.37,77,100,3.67,CM,1715119791
415,midvagur,62.0511,-7.1939,47.23,87,75,14.97,FO,1715119791
416,marcali,46.585,17.412,58.87,92,100,2.1,HU,1715119792
417,arno,60.1167,18.6333,36.79,69,67,3.56,SE,1715119792
418,ketchikan,55.3422,-131.6461,52.27,58,20,14.97,US,1715119792
419,rio grande,-32.035,-52.0986,71.71,93,93,6.96,BR,1715119520
420,laurel,39.0993,-76.8483,78.85,77,75,6.91,US,1715119591
421,ewo,-0.8725,14.8206,78.84,75,95,2.06,CG,1715119792
422,lompoc,34.6391,-120.4579,73.85,63,0,18.41,US,1715119708
423,al ghayzah,16.2079,52.176,85.26,74,0,9.06,YE,1715119792
424,watford city,47.8022,-103.2832,51.66,100,75,14.97,US,1715119793
425,gustavsberg,59.3268,18.3898,39.33,82,11,4.43,SE,1715119793
426,vari,37.8312,23.8081,69.64,57,0,4.61,GR,1715119793
427,sabzevar,36.2126,57.6819,71.2,35,2,5.35,IR,1715119793
428,prince rupert,54.3161,-130.3201,51.89,66,40,9.22,CA,1715119793
429,baganga,7.5739,126.56,77.13,74,97,4.54,PH,1715119793
430,imuris,30.7833,-110.8667,84.6,11,0,15.5,MX,1715119793
431,novovoronezh,51.3072,39.2173,42.89,80,74,17.74,RU,1715119793
432,zaraza,9.3503,-65.3245,92.61,44,94,10.94,VE,1715119793
433,aoulef,26.9667,1.0833,89.28,6,43,10.4,DZ,1715119793
434,new norfolk,-42.7826,147.0587,52.92,85,100,0.94,AU,1715119793
435,rongelap,11.1635,166.8941,81.3,81,76,19.57,MH,1715119794
436,pechora,65.1472,57.2244,24.85,96,100,5.01,RU,1715119794
437,monrovia,6.3005,-10.7969,80.37,85,14,8.01,LR,1715119794
438,kathmandu,27.7167,85.3167,61.02,88,75,2.3,NP,1715119541
439,san andres,12.5847,-81.7006,83.8,80,100,11.95,CO,1715119794
440,kapuskasing,49.4169,-82.4331,61.36,35,100,8.05,CA,1715119794
441,baiyin,36.5583,104.2081,58.46,57,82,2.73,CN,1715119794
442,wynyard,-41.0,145.7167,56.44,68,95,8.75,AU,1715119794
443,vorkuta,67.5,64.0,-1.89,100,82,5.01,RU,1715119794
444,guerrero negro,27.9769,-114.0611,67.8,55,0,20.4,MX,1715119585
445,kiffa,16.6166,-11.4045,95.32,6,0,8.03,MR,1715119795
446,chui,-33.6971,-53.4616,68.16,98,100,10.25,UY,1715119795
447,griffith,41.5284,-87.4237,79.52,82,75,12.66,US,1715119499
448,ak-dovurak,51.1833,90.6,54.1,33,100,4.0,RU,1715119795
449,kupang,-10.1667,123.5833,78.3,79,6,9.37,ID,1715119795
450,atamyrat,37.8357,65.2106,80.89,27,52,10.2,TM,1715119795
451,bridgetown,13.1,-59.6167,82.71,76,32,13.31,BB,1715119739
452,bishoftu,8.75,38.9833,63.7,78,28,4.23,ET,1715119795
453,manggar,-2.8833,108.2667,80.76,83,56,5.86,ID,1715119639
454,hengchun,22.0042,120.7439,78.6,80,67,11.68,TW,1715119795
455,remire-montjoly,4.9167,-52.2667,82.44,83,20,8.05,GF,1715119796
456,shar'ya,58.3686,45.5144,36.99,67,100,8.01,RU,1715119796
457,niquero,20.0431,-77.5828,84.51,70,25,5.73,CU,1715119796
458,khandud,36.9513,72.318,34.63,66,5,3.58,AF,1715119796
459,san antonio de pale,-1.4014,5.6325,81.59,81,100,5.1,GQ,1715119796
460,igrim,63.1906,64.4162,28.09,96,100,11.83,RU,1715119796
461,progreso,21.2833,-89.6667,107.71,80,40,17.65,MX,1715119796
462,rahimah,26.7079,50.0619,77.22,74,0,11.65,SA,1715119796
463,kaka,37.3482,59.6143,71.33,62,86,8.99,TM,1715119796
464,berezovyy,51.6667,135.7,48.16,48,65,2.89,RU,1715119797
465,adrar,20.5022,-10.0711,91.0,7,98,6.69,MR,1715119797
466,igarka,67.4667,86.5833,11.01,97,84,5.01,RU,1715119797
467,yung shue wan,22.2333,114.1167,78.22,85,99,8.59,HK,1715119797
468,ajaccio,42.0,8.9167,53.65,90,0,6.91,FR,1715119797
469,ixtapa,20.7,-105.2,79.83,74,100,12.66,MX,1715119797
470,antofagasta,-23.65,-70.4,59.92,84,93,6.55,CL,1715119797
471,sorong,-0.8833,131.25,79.18,87,93,5.26,ID,1715119797
472,castillos,-34.1667,-53.8333,67.6,99,100,7.81,UY,1715119797
473,shitanjing,39.2342,106.3439,59.13,21,70,9.62,CN,1715119798
474,daun,50.2,6.8333,52.99,87,56,4.61,DE,1715119798
475,tsiroanomandidy,-18.7667,46.0333,61.5,78,0,4.61,MG,1715119798
476,itoman,26.1247,127.6694,74.08,83,40,5.75,JP,1715119798
477,kulunda,52.566,78.9385,53.28,82,96,8.79,RU,1715119798
478,amahai,-3.3333,128.9167,85.19,86,75,4.5,ID,1715119798
479,umm kaddadah,13.6017,26.6876,85.12,14,100,16.02,SD,1715119798
480,mandalgovi,45.7625,106.2708,48.11,64,27,25.66,MN,1715119798
481,tazacorte,28.629,-17.9293,70.14,92,100,8.05,ES,1715119798
482,luderitz,-26.6481,15.1594,61.5,88,0,16.51,NA,1715119798
483,kshenskiy,51.8408,37.7136,38.46,87,100,16.82,RU,1715119799
484,xishan,27.6667,113.5,68.83,90,100,1.54,CN,1715119799
485,narrabri,-30.3167,149.7833,55.53,78,28,3.0,AU,1715119799
486,piacabucu,-10.4056,-36.4344,79.41,86,100,9.28,BR,1715119799
487,kurumkan,54.3,110.3,41.13,58,0,7.0,RU,1715119799
488,lijiang,26.8688,100.2207,51.87,72,100,3.85,CN,1715119799
489,suva,-18.1416,178.4415,78.28,83,75,8.05,FJ,1715119799
490,masaya sur,16.497,121.7456,73.96,68,22,1.95,PH,1715119799
491,ugoofaaru,5.6667,73.0,84.24,79,93,9.17,MV,1715119799
492,fuglafjordur,62.244,-6.814,46.87,82,100,13.87,FO,1715119799
493,businga,3.3333,20.8833,75.79,84,59,2.53,CD,1715119799
494,nuuk,64.1835,-51.7216,34.41,60,0,8.05,GL,1715119800
495,petauke,-14.2426,31.3253,67.15,63,0,7.7,ZM,1715119800
496,susuman,62.7833,148.1667,32.99,75,67,5.01,RU,1715119800
497,santa fe do sul,-20.2111,-50.9258,80.31,43,2,7.07,BR,1715119800
498,la passe,45.5549,-0.8967,57.43,88,0,6.78,FR,1715119800
499,masterton,-40.9597,175.6575,49.89,59,18,4.27,NZ,1715119585
500,sinabang,2.4803,96.3801,80.35,82,96,3.56,ID,1715119800
501,torghay,49.6339,63.4981,53.74,46,87,10.27,KZ,1715119800
502,shchyolkino,45.4291,35.8223,60.57,66,4,2.64,UA,1715119800
503,parnarama,-5.6817,-43.0933,80.37,73,77,3.31,BR,1715119801
504,mata-utu,-13.2816,-176.1745,85.35,77,92,13.24,WF,1715119801
505,raufoss,60.7264,10.6172,45.99,95,97,3.13,NO,1715119801
506,dalian,38.9122,121.6022,53.53,62,0,6.71,CN,1715119566
507,cole harbour,44.6724,-63.4751,63.19,73,44,7.49,CA,1715119665
508,bonanza,14.0289,-84.591,90.7,47,21,8.01,NI,1715119802
509,swift current,50.2834,-107.8014,49.01,93,100,23.02,CA,1715119802
510,porto novo,6.4965,2.6036,83.91,77,100,8.61,BJ,1715119802
511,callao,-12.0667,-77.15,68.29,77,40,12.66,PE,1715119546
512,ebon,4.582,168.6964,80.38,85,100,5.41,MH,1715119803
513,mount isa,-20.7333,139.5,65.97,52,53,1.14,AU,1715119803
514,zakynthos,37.7914,20.8953,62.64,76,27,2.66,GR,1715119803
515,mramani,-12.3464,44.5286,80.04,77,4,10.78,KM,1715119803
516,kloulklubed,7.0419,134.2556,79.3,78,88,8.63,PW,1715119803
517,rawai,7.7797,98.3253,86.99,73,100,12.19,TH,1715119803
518,ust'-kulom,61.6864,53.6902,26.56,80,83,6.6,RU,1715119803
519,kegeyli shahar,42.7767,59.6078,75.29,48,100,6.78,UZ,1715119804
520,p'ot'i,42.1462,41.672,56.62,86,100,9.53,GE,1715119804
521,yerofey pavlovich,53.9667,121.9667,51.78,73,100,1.36,RU,1715119804
522,hailar,49.2,119.7,60.4,24,73,15.23,CN,1715119804
523,guaruja,-23.9931,-46.2564,81.9,26,3,7.0,BR,1715119680
524,ternate,0.8,127.4,81.23,81,75,5.84,ID,1715119804
525,el sauzal de rodriguez,31.9,-116.6833,64.42,66,7,7.76,MX,1715119804
526,kapa'a,22.0752,-159.319,82.38,74,20,14.97,US,1715119804
527,primorsk,46.7348,36.3443,53.82,58,26,11.5,UA,1715119804
528,westport,41.1415,-73.3579,80.89,44,0,13.8,US,1715119728
529,dembi dolo,8.5333,34.8,64.51,57,0,2.26,ET,1715119805
530,seminole,28.7086,-81.2081,94.41,50,20,9.22,US,1715119781
531,pizarro,4.9533,-77.366,80.49,89,100,7.67,CO,1715119805
532,pasuquin,18.3328,120.6177,80.51,55,14,4.25,PH,1715119805
533,dingwall,57.5953,-4.4272,49.06,90,99,1.54,GB,1715119805
534,cadale,2.7603,46.3222,82.4,81,75,12.93,SO,1715119805
535,salaga,8.5508,-0.5188,81.03,78,92,7.54,GH,1715119805
536,veraval,20.9,70.3667,81.07,87,0,14.32,IN,1715119805
537,grootfontein,-19.5667,18.1167,64.89,43,9,3.31,NA,1715119805
538,shiloh,38.5614,-89.8973,85.91,47,20,13.8,US,1715119806
539,mooloolaba,-26.6833,153.1167,65.05,98,74,1.99,AU,1715119806
540,egilsstadir,65.2653,-14.3948,44.62,69,48,16.22,IS,1715119806
541,la'ie,21.6477,-157.9253,82.36,68,22,5.01,US,1715119806
542,birobidzhan,48.8,132.95,46.81,38,10,2.28,RU,1715119806
543,middelburg,-25.7751,29.4648,56.77,28,0,3.15,ZA,1715119806
544,hammerfest,70.6634,23.6821,27.05,68,0,8.05,NO,1715119807
545,voskresenskoye,56.8381,45.4317,33.22,98,100,12.53,RU,1715119807
546,juneau,58.3019,-134.4197,46.42,91,100,19.57,US,1715119807
547,novaya tavolzhanka,50.3512,36.8298,42.22,85,71,15.99,RU,1715119807
548,chokwe,-24.5333,32.9833,66.13,87,0,6.49,MZ,1715119807
549,yuzhno-kurilsk,44.0306,145.8556,37.38,95,100,22.01,RU,1715119807
550,webster,42.0501,-71.8801,77.81,32,43,5.01,US,1715119807
551,aykhal,66.0,111.5,23.5,95,97,15.17,RU,1715119807
552,manacapuru,-3.2997,-60.6206,79.27,89,100,4.38,BR,1715119807
553,broome,42.2506,-75.833,74.7,31,45,3.0,US,1715119808
554,galliano,29.4422,-90.2992,86.0,78,100,8.05,US,1715119808
555,mugia,43.1041,-9.2179,56.91,78,100,16.55,ES,1715119808
556,amparafaravola,-17.5833,48.2167,62.15,88,60,7.45,MG,1715119760
557,sheksna,59.21,38.5107,31.93,68,100,5.26,RU,1715119808
558,zabaykal'sk,49.6333,117.3167,53.47,66,100,25.12,RU,1715119808
559,coron,11.9986,120.2043,78.94,83,73,1.7,PH,1715119808
560,yemva,62.59,50.8594,25.93,72,29,4.03,RU,1715119808
561,paoua,7.2427,16.4406,85.24,44,100,4.41,CF,1715119808
562,aripuana,-9.1667,-60.6333,77.4,96,95,2.42,BR,1715119700
563,ad douiem,14.0012,32.3116,87.03,10,1,14.05,SD,1715119809
564,micheweni,-4.9667,39.8333,79.95,82,100,13.33,TZ,1715119809
565,pangody,65.85,74.4859,22.41,95,98,16.42,RU,1715119809
